%time,field.x,field.y,field.z,field.w
2828882000000,0.00161536829459,0.0192388185018,-0.000180838909419,0.999813595499
2828900000000,0.00161538916213,0.0192388134116,-0.000181314738749,0.999813595477
2828919000000,0.00161539780837,0.0192387582169,-0.000181583891402,0.999813596477
2828940000000,0.00161554927041,0.0192388482087,-0.000181705563306,0.999813594478
2828960000000,0.00161537791517,0.01923893289,-0.000181770044447,0.999813593114
2828980000000,0.00161533320434,0.0192388408041,-0.000181801150426,0.999813594952
2829002000000,0.00161532723452,0.0192388152755,-0.000181816565181,0.99981359545
2829020000000,0.00161544633486,0.0192388937687,-0.000181822341968,0.999813593747
2829040000000,0.00161562756815,0.0192389675384,-0.000181823317732,0.999813592034
2829060000000,0.00161560752242,0.0192388782145,-0.000181826202248,0.999813593785
2829080000000,0.00161574943011,0.0192389643665,-0.000181825373878,0.999813591898
2829100000000,0.00161573759441,0.0192388037952,-0.000181826801921,0.999813595006
2829120000000,0.00161573735651,0.019238994264,-0.000181828785553,0.999813591341
2829140000000,0.00161573263552,0.0192391531975,-0.000181799348747,0.999813588296
2829160000000,0.00161595564207,0.0192389161603,-0.000181605918645,0.999813592532
2829180000000,0.00161599778259,0.0192391725316,-0.000181475618399,0.999813587554
2829199000000,0.00161607129183,0.0192389976837,-0.000181421391925,0.99981359081
2829220000000,0.00161621054997,0.0192391307603,-0.000181396882689,0.999813588028
2829240000000,0.00161593422055,0.0192392700892,-0.000181378772202,0.999813585797
2829260000000,0.00161591572246,0.0192394004992,-0.00018138283216,0.999813583317
2829280000000,0.00161593442221,0.0192392332891,-0.000181386485738,0.999813586504
2829299000000,0.00161587138205,0.0192395007461,-0.000181376296778,0.999813581461
2829320000000,0.00161602746104,0.0192393398633,-0.000181382439976,0.999813584303
2829340000000,0.00161607374041,0.0192392427121,-0.000181388154392,0.999813586097
2829360000000,0.00161633575135,0.0192394516104,-0.000181372763444,0.999813581656
2829380000000,0.00161625371723,0.019239455381,-0.000181384383748,0.999813581714
2829400000000,0.00161629435276,0.019239455158,-0.000181390442541,0.999813581652
2829420000000,0.00161630879423,0.0192397791545,-0.000181379996373,0.999813575396
2829440000000,0.00161637875478,0.0192395698762,-0.000181388598239,0.999813579308
2829460000000,0.00161654406506,0.0192396611645,-0.000181392256628,0.999813577283
2829480000000,0.00161647093757,0.0192394030204,-0.000181382675389,0.999813582371
2829499000000,0.00161624004224,0.0192395611587,-0.000181397652364,0.999813579698
2829520000000,0.00161650653689,0.0192394397603,-0.000181398949603,0.999813581603
2829540000000,0.00161636061636,0.0192394910667,-0.00018139109627,0.999813580854
2829560000000,0.00161609077756,0.0192392121775,-0.000181406369413,0.999813586654
2829580000000,0.0016162085701,0.0192389609094,-0.000181410212286,0.999813591298
2829600000000,0.00161617519567,0.0192390560881,-0.000181400183226,0.999813589522
2829620000000,0.00161613304738,0.019238870481,-0.000181411313993,0.99981359316
2829640000000,0.00161602837663,0.0192387868586,-0.000181419508251,0.999813594936
2829659000000,0.00161606975193,0.0192389486811,-0.000181408061376,0.999813591758
2829679000000,0.00161598691412,0.0192388813374,-0.00018142023323,0.999813593185
2829700000000,0.00161588462217,0.0192388097614,-0.000181428263445,0.999813594726
2829720000000,0.00161583266471,0.0192389592866,-0.000181418526322,0.999813591935
2829740000000,0.00161579192878,0.0192390056787,-0.000181430139581,0.999813591106
2829760000000,0.00161579249276,0.0192387996471,-0.000181435888724,0.999813595068
2829780000000,0.00161596403568,0.0192389810652,-0.000181421835723,0.999813591303
2829800000000,0.00161601895769,0.0192388924003,-0.000181431537303,0.999813592918
2829820000000,0.00161595066632,0.0192387165128,-0.000181438520482,0.999813596412
2829839000000,0.00161588922176,0.0192389760798,-0.000181428980852,0.999813591518
2829860000000,0.00161583717681,0.0192388667722,-0.000181440807093,0.999813593704
2829880000000,0.00161588287944,0.0192385448358,-0.000181445289332,0.999813599824
2829900000000,0.00161590760836,0.0192386238278,-0.000181433801428,0.999813598266
2829920000000,0.00161576099226,0.0192385446431,-0.000181447577156,0.999813600024
2829940000000,0.00161577544686,0.0192384494782,-0.000181452833081,0.999813601831
2829960000000,0.00161564595135,0.0192385719946,-0.000181444305226,0.999813599684
2829980000000,0.00161563143761,0.0192388666433,-0.00018145611865,0.999813594036
2830000000000,0.00161550682,0.01923903192,-0.000181464265684,0.999813591055
2830020000000,0.00161569667461,0.0192389658301,-0.000181449305236,0.999813592023
2830040000000,0.00161560575969,0.0192389170605,-0.000181462229419,0.999813593106
2830060000000,0.00161570259803,0.0192388881339,-0.000181465758305,0.999813593506
2830080000000,0.00161555555158,0.0192389273169,-0.000181457350759,0.999813592991
2830100000000,0.00161551172883,0.0192387379354,-0.000181469274349,0.999813596704
2830120000000,0.00161548642049,0.0192388249352,-0.000181475188579,0.999813595069
2830140000000,0.00161533259113,0.0192388496746,-0.000181466841888,0.999813594843
2830160000000,0.00161531974684,0.0192387056499,-0.000181478312324,0.999813597633
2830180000000,0.00161527215657,0.0192387360708,-0.000181484474006,0.999813597124
2830200000000,0.00161529461526,0.0192388133604,-0.000181472762698,0.999813595602
2830220000000,0.00161531220273,0.0192387969749,-0.000181483895477,0.999813595887
2830240000000,0.00161530173524,0.0192387814538,-0.000181489181833,0.999813596202
2830260000000,0.00161545091263,0.0192391517339,-0.000181475373074,0.999813588838
2830280000000,0.00161553326838,0.0192391163345,-0.000181485317727,0.999813589385
2830300000000,0.00161544568252,0.0192389404332,-0.000181491776052,0.99981359291
2830320000000,0.00161560999658,0.0192390651668,-0.00018147731752,0.999813590247
2830340000000,0.00161570523741,0.0192390450632,-0.00018148711191,0.999813590478
2830360000000,0.00161566228035,0.01923887908,-0.000181492625105,0.99981359374
2830380000000,0.00161564258983,0.0192387719954,-0.000181481360464,0.999813595835
2830400000000,0.00161590148674,0.0192387588154,-0.000181488096294,0.999813595669
2830420000000,0.00161604572218,0.0192386603506,-0.000181490004241,0.99981359733
2830438000000,0.00161617341184,0.0192387907785,-0.000181476180451,0.999813594616
2830460000000,0.00161631038092,0.0192386567389,-0.000181485175622,0.999813596972
2830480000000,0.00161624382326,0.0192385602777,-0.00018149103841,0.999813598935
2830500000000,0.0016162617045,0.0192385479746,-0.000181479105659,0.999813599145
2830520000000,0.00161633646403,0.0192386335445,-0.000181490248032,0.999813597376
2830540000000,0.00161634274335,0.0192387475763,-0.000181496271366,0.99981359517
2830560000000,0.00161627000995,0.0192387360532,-0.000181487148854,0.999813595511
2830580000000,0.00161615949821,0.0192387338818,-0.000181500899871,0.999813595729
2830600000000,0.00161630138871,0.0192385522876,-0.000181510996136,0.999813598992
2830620000000,0.00161607863072,0.0192386293674,-0.000182785809117,0.999813597637
2830640000000,0.00161613742632,0.0192386457091,-0.000182476784396,0.999813597284
2830660000000,0.0016160630612,0.0192386124328,-0.00018231113214,0.999813598074
2830680000000,0.00161630231136,0.0192384086837,-0.000182180731572,0.999813601632
2830700000000,0.00161622525273,0.019238416733,-0.000182079640602,0.99981360162
2830720000000,0.00161629932669,0.0192381296831,-0.000181988745494,0.99981360704
2830740000000,0.00161627643769,0.0192380035013,-0.000181907889603,0.99981360952
2830760000000,0.00161638409373,0.0192380737617,-0.000181829202269,0.999813608008
2830780000000,0.0016165415245,0.0192380866735,-0.000181752156855,0.999813607519
2830800000000,0.00161643015806,0.0192382404919,-0.000181685091971,0.999813604752
2830820000000,0.00161648047997,0.0192381659951,-0.000181656373519,0.999813606109
2830840000000,0.00161662907526,0.0192381981485,-0.000181857427211,0.999813605214
2830860000000,0.00161665804954,0.0192380090533,-0.000182020542474,0.999813608776
2830880000000,0.00161672616245,0.0192378680771,-0.000181847012883,0.99981361141
2830900000000,0.00161684646285,0.0192380376157,-0.000181950679983,0.999813607934
2830920000000,0.00161672460491,0.0192380902798,-0.000182297265334,0.999813607055
2830940000000,0.00161696043379,0.0192381035414,-0.000182446417219,0.999813606391
2830959000000,0.00161704024371,0.0192379896148,-0.000182519836404,0.999813608441
2830982000000,0.00161688858751,0.019238152172,-0.000182560209192,0.999813605551
2831000000000,0.00161682620923,0.0192379996753,-0.000182579923289,0.999813608582
2831020000000,0.00161690734729,0.0192380020988,-0.000182587975935,0.999813608403
2831040000000,0.00161718722059,0.0192381425059,-0.000182587926657,0.999813605249
2831060000000,0.00161741569836,0.0192380518814,-0.000182586388868,0.999813606623
2831080000000,0.00161750362759,0.0192381032836,-0.00018258668876,0.999813605492
2831100000000,0.00161744203733,0.0192380318795,-0.000182589214498,0.999813606965
2831119000000,0.00161760343105,0.0192381453798,-0.000182587489192,0.99981360452
2831140000000,0.00161743456877,0.0192383186808,-0.000182592137818,0.999813601458
2831160000000,0.00161747021098,0.0192383436935,-0.000182575827951,0.999813600922
2831180000000,0.00161753742729,0.0192384698062,-0.000182396516845,0.999813598419
2831200000000,0.00161754882943,0.0192386485891,-0.000182241778593,0.999813594989
2831219000000,0.00161755404978,0.0192385699789,-0.000182172656191,0.999813596505
2831240000000,0.00161753760936,0.0192386755994,-0.0001821279828,0.999813594508
2831260000000,0.00161753829271,0.0192385907848,-0.000182121031179,0.99981359614
2831280000000,0.00161748314842,0.0192383940209,-0.000182121224818,0.999813600015
2831300000000,0.00161756101358,0.0192385358939,-0.000182105988896,0.999813597162
2831320000000,0.00161766610541,0.0192385536692,-0.00018211229538,0.999813596649
2831340000000,0.00161764447517,0.0192385182816,-0.000182118921294,0.999813597364
2831360000000,0.00161757051826,0.0192386556446,-0.000182109677556,0.999813594842
2831380000000,0.00161763880282,0.0192384570159,-0.000182118036641,0.999813598552
2831400000000,0.00161752513957,0.0192385582599,-0.000182127153602,0.999813596786
2831419000000,0.00161747063331,0.0192386875976,-0.000182117763589,0.999813594387
2831440000000,0.00161736150863,0.0192386455157,-0.000182130002042,0.999813595371
2831459000000,0.00161737225882,0.01923849405,-0.000182136321222,0.999813598267
2831480000000,0.00161727997609,0.0192388256038,-0.000182127874505,0.999813592038
2831498000000,0.00161720440279,0.0192388112443,-0.000182139635834,0.999813592435
2831520000000,0.00161731299552,0.0192387939128,-0.000182144110672,0.999813592592
2831540000000,0.00161731337509,0.0192389683078,-0.000182133612301,0.999813589237
2831560000000,0.0016173272723,0.0192390573441,-0.000182143904437,0.999813587499
2831579000000,0.00161738906721,0.019238925932,-0.000182148988804,0.999813589927
2831600000000,0.00161723370977,0.0192391149213,-0.000182141428878,0.999813586543
2831620000000,0.00161720481446,0.0192390450486,-0.000182152446987,0.999813587933
2831639000000,0.00161732062588,0.0192387838023,-0.000182156187713,0.999813592772
2831660000000,0.0016174224572,0.0192389165907,-0.000182143547186,0.999813590054
2831680000000,0.00161754294114,0.0192388577101,-0.000182151817513,0.999813590991
2831700000000,0.00161766801144,0.0192389518879,-0.00018215570639,0.999813588975
2831720000000,0.00161776412895,0.0192391490332,-0.000182143192059,0.999813585029
2831740000000,0.00161769959388,0.0192392446285,-0.000182155318692,0.999813583291
2831760000000,0.00161759833081,0.0192390913301,-0.00018216310172,0.999813586404
2831779000000,0.0016175252738,0.0192391715798,-0.000182153619738,0.999813584979
2831800000000,0.00161771782709,0.0192391079084,-0.000182160703415,0.999813585892
2831820000000,0.00161787560673,0.019238866321,-0.000182163269798,0.999813590285
2831839000000,0.00161785199428,0.0192390690582,-0.000182152934422,0.999813586423
2831860000000,0.00161798150098,0.0192389659577,-0.000182161275057,0.999813588196
2831880000000,0.00161799527427,0.0192387892834,-0.000182166568096,0.999813591573
2831900000000,0.00161786068507,0.0192391106104,-0.000182158457641,0.999813585609
2831920000000,0.00161782912452,0.0192392212253,-0.000182170262837,0.999813583529
2831940000000,0.00161788199743,0.0192391278067,-0.00018217479255,0.99981358524
2831960000000,0.00161794354291,0.0192392649748,-0.000182162618846,0.999813582504
2831980000000,0.00161801069789,0.0192390919097,-0.000182172251984,0.999813585723
2832000000000,0.00161812906974,0.0192390219529,-0.000182175437108,0.999813586877
2832020000000,0.00161807056781,0.0192392526986,-0.000182165634282,0.999813582534
2832040000000,0.00161820122167,0.0192391118787,-0.000182174177974,0.99981358503
2832060000000,0.00161822170317,0.0192389979823,-0.000182179072064,0.999813587188
2832080000000,0.00161812827475,0.0192389600985,-0.000182169538665,0.99981358807
2832100000000,0.00161800031994,0.019238752828,-0.00018218304879,0.999813592263
2832119000000,0.00161798356047,0.0192385747986,-0.00018218846439,0.999813595715
2832140000000,0.00161807114348,0.0192385598152,-0.000182175433465,0.999813595864
2832160000000,0.00161792722976,0.0192385510152,-0.000182189590211,0.999813596263
2832179000000,0.0016182224219,0.0192383642781,-0.000182188896203,0.999813599379
2832200000000,0.00161809740827,0.0192383458214,-0.000182179896154,0.999813599938
2832220000000,0.00161811921854,0.0192383828084,-0.000182191011081,0.999813599189
2832238000000,0.00161818355879,0.019238402524,-0.000182194914457,0.999813598705
2832260000000,0.00161820769404,0.0192383838745,-0.000182183006456,0.999813599027
2832280000000,0.00161830584939,0.019238347495,-0.000182192640844,0.999813599566
2832300000000,0.00161850428053,0.0192382547251,-0.000182193721915,0.99981360103
2832320000000,0.00161837510799,0.0192382652519,-0.000182184754505,0.999813601038
2832340000000,0.0016185879809,0.0192384461545,-0.000182192544727,0.999813597211
2832360000000,0.00161881859895,0.0192386788483,-0.000182193328025,0.99981359236
2832380000000,0.00161882758952,0.0192388504339,-0.000182181875763,0.999813589046
2832400000000,0.00161884071496,0.0192388902542,-0.000182193394782,0.999813588256
2832419000000,0.00161876383774,0.0192387022618,-0.000182199440828,0.999813591997
2832440000000,0.00161877890542,0.0192388957196,-0.000182187863744,0.999813588252
2832460000000,0.0016187766249,0.0192387246661,-0.000182199480162,0.999813591545
2832480000000,0.00161876900808,0.0192385837693,-0.000182204160956,0.999813594268
2832500000000,0.00161888265684,0.0192385504276,-0.000182190362672,0.999813594728
2832520000000,0.00161879797839,0.0192386591449,-0.00018220390752,0.999813592771
2832540000000,0.00161893525225,0.0192388262439,-0.00018221851156,0.99981358933
2832560000000,0.00161880577092,0.0192388758997,-0.000182212888873,0.999813588586
2832579000000,0.00160428017443,0.0192405848186,-0.000181981283605,0.999813579156
2832600000000,0.00161872711599,0.0192388319295,-0.000183261723953,0.999813589367
2832620000000,0.00161843519727,0.0192388946188,-0.000183076005093,0.999813588668
2832640000000,0.00161830776454,0.0192386175606,-0.000182940739731,0.99981359423
2832660000000,0.00161827636622,0.0192384099529,-0.000182831626527,0.999813598296
2832680000000,0.00161793970145,0.0192383839969,-0.000182744789266,0.999813599356
2832700000000,0.00161791530887,0.0192384665012,-0.000182661711866,0.999813597823
2832720000000,0.00161788943792,0.0192385045353,-0.000182584102324,0.999813597147
2832740000000,0.00161788334629,0.0192384686986,-0.000182509062072,0.99981359786
2832760000000,0.00161798744971,0.019238371309,-0.000182434926338,0.999813599579
2832780000000,0.00161813554389,0.0192381839075,-0.00018237713817,0.999813602956
2832800000000,0.00161805575138,0.0192385272454,-0.00018249479381,0.999813596457
2832819000000,0.00161820009046,0.0192385714282,-0.00018272572191,0.999813595331
2832840000000,0.00161827320505,0.019238523098,-0.000182893063572,0.999813596112
2832860000000,0.00161834532526,0.0192383848268,-0.000182385822643,0.999813598749
2832879000000,0.00161838336831,0.0192383356816,-0.000182931741893,0.999813599533
2832900000000,0.00161839481039,0.0192385228475,-0.000183134364178,0.999813595876
2832920000000,0.00161845874707,0.0192385752885,-0.000183229899117,0.999813594746
2832940000000,0.00161849710222,0.0192385856379,-0.000183276922815,0.999813594476
2832960000000,0.00161843068406,0.0192384632662,-0.000183301897321,0.999813596934
2832980000000,0.0016184630384,0.0192383142272,-0.000183313219046,0.999813599747
2833000000000,0.0016185827925,0.0192383636242,-0.000183317370258,0.999813598602
2833019000000,0.00161839661046,0.019238446692,-0.000183324631489,0.999813597304
2833040000000,0.00161845189433,0.0192385241075,-0.000183325891763,0.999813595724
2833059000000,0.00161824527097,0.0192386472849,-0.000183331601189,0.999813593688
2833082000000,0.00161825033603,0.0192385562924,-0.000183332684768,0.99981359543
2833100000000,0.00161831709052,0.0192385812397,-0.000183332969167,0.999813594842
2833120000000,0.00161842021711,0.0192382440571,-0.000179861984935,0.999813601793
2833139000000,0.00160941390231,0.0190679091048,-9.05657092478e-05,0.999816891449
2833160000000,0.0016527734809,0.019235654934,0.00127988735328,0.99981279238
2833180000000,0.00175510030705,0.0192212584304,0.00637823283291,0.999793369148
2833200000000,0.00189483919959,0.0191463459394,0.0142430229067,0.999713440602
2833220000000,0.00217790248339,0.0191640861827,0.0249836757849,0.999501781132
2833240000000,0.00233490171051,0.0213777128787,0.035793620241,0.999127798821
2833260000000,0.00238823523453,0.0230896953958,0.0445515919372,0.99873736185
2833280000000,0.00253833113948,0.0217750672121,0.0487582899114,0.998569993785
2833300000000,0.00258495515918,0.0188845826049,0.0495461691297,0.998589939701
2833320000000,0.00264917505341,0.0191536823022,0.0495552436051,0.998584195828
2833340000000,0.00268135993751,0.0191491788338,0.0495493608998,0.99858448821
2833363000000,0.00265800991931,0.0191495687806,0.0495373988374,0.998585136638
2833380000000,0.00265642307339,0.0191279098467,0.049526665796,0.998586088355
2833400000000,0.0026540981144,0.0191264550113,0.0495171971022,0.998586591975
2833420000000,0.00265139150576,0.0191405398677,0.0495064146681,0.998586863905
2833440000000,0.00265438255365,0.0191657752539,0.0494960617865,0.998586885143
2833460000000,0.0026588218722,0.0191726501103,0.0494874618465,0.998587167589
2833480000000,0.00264272325483,0.0191451220802,0.0494758572772,0.998588313501
2833503000000,0.00262579358899,0.0191384127717,0.0494671997831,0.998588915676
2833520000000,0.00264607807422,0.0191324698987,0.0494561448991,0.998589523577
2833540000000,0.00266181985077,0.0191414370168,0.0494451422672,0.99858985475
2833560000000,0.0026866017727,0.0191613199704,0.0494346819911,0.998589924946
2833580000000,0.0026678870943,0.0191528029518,0.049424976674,0.998590618922
2833600000000,0.00264691896997,0.0191364526161,0.0494144101027,0.998591511117
2833620000000,0.00264249832777,0.0191303610927,0.0494053332506,0.99859208866
2833640000000,0.00263692281568,0.019139564205,0.0493951255948,0.99859243202
2833659000000,0.00265694859324,0.019153576458,0.0493840777705,0.99859265669
2833678000000,0.00266763131674,0.0191716039546,0.0493752469003,0.998592718949
2833700000000,0.0025559938474,0.0189738139364,0.049466947757,0.9985922503
2833720000000,0.00262987110154,0.0182918856894,0.0504580010528,0.998555196685
2833740000000,0.00271183088201,0.0190412309632,0.0535238864269,0.998381325486
2833760000000,0.00279083455961,0.0188751131289,0.0602746157839,0.997999454929
2833780000000,0.00299259418855,0.0187776941048,0.0702950135388,0.997345002322
2833800000000,0.00336624052388,0.0188981520624,0.0823632254125,0.996417496521
2833820000000,0.00375632104079,0.0190834595429,0.0943045532769,0.995353385916
2833840000000,0.00401952277345,0.0190549303304,0.106082762587,0.994166585914
2833859000000,0.004271307883,0.0190310232237,0.117698408552,0.992857825022
2833880000000,0.00451132473324,0.0189997955909,0.129172043884,0.991429896057
2833900000000,0.00474102754036,0.0189705002266,0.140522910237,0.989884313684
2833920000000,0.00499163522835,0.0189305811768,0.151688712916,0.988234410981
2833940000000,0.00521295108101,0.0189027017155,0.16269131405,0.986482158653
2833960000000,0.00543674241305,0.0188667558449,0.173563310473,0.984626967239
2833980000000,0.00568203682716,0.018826634617,0.184263988585,0.982680036837
2834000000000,0.00589443202523,0.0187899847758,0.194806554061,0.980643971397
2834020000000,0.00611103812005,0.018752196517,0.20520035774,0.978521243266
2834040000000,0.00635069774288,0.0187111248752,0.215444712439,0.976316105739
2834060000000,0.00655671075772,0.0186715745352,0.225544144149,0.974031940384
2834080000000,0.00676705388493,0.0186312042934,0.235499625738,0.971672275763
2834100000000,0.00700063397612,0.0185891076963,0.245311530123,0.969240779883
2834120000000,0.00720054301705,0.0185482644378,0.254983595506,0.96674064779
2834140000000,0.00740488829752,0.0185059336265,0.264516424193,0.964175170486
2834160000000,0.00763326371512,0.0184652061898,0.273941242952,0.961538852494
2834180000000,0.00784201925526,0.0184232962526,0.283253196352,0.958836123457
2834200000000,0.00804893653211,0.0183814497273,0.29242762789,0.956077099074
2834221000000,0.00825366725901,0.0183396279319,0.301466866938,0.953264529479
2834240000000,0.00845628953566,0.0182979469506,0.310372320688,0.950401335676
2834260000000,0.0086568138648,0.0182560253077,0.319145253275,0.947490413897
2834276000000,0.00883194624112,0.0182082337785,0.327770711713,0.944540532477
2834300000000,0.00904855590759,0.0181687211825,0.336260014145,0.941550436298
2834320000000,0.00923145971138,0.0181276699865,0.344626724063,0.93851935984
2834340000000,0.00942285218489,0.0180861575352,0.352867893119,0.935450881002
2834360000000,0.00961174008066,0.0180450232136,0.360981115907,0.932348982704
2834378000000,0.00979843825322,0.01800411912,0.368967170624,0.929216373782
2834401000000,0.00998275163228,0.0179635081836,0.376826933166,0.926055678393
2834420000000,0.0101646258744,0.0179234298944,0.384561233003,0.9228694865
2834440000000,0.0103443995442,0.0178836591963,0.392170884828,0.919660353187
2834460000000,0.0105221268363,0.0178443511071,0.399656686114,0.916430792382
2834480000000,0.0106978347422,0.0178056388661,0.40701944515,0.913183271215
2834500000000,0.0108716423732,0.0177676430875,0.414259994467,0.909920202675
2834520000000,0.0110434654829,0.0177304291958,0.421379193576,0.906643948291
2834540000000,0.0112134593374,0.017693981565,0.428377933176,0.903356810853
2834560000000,0.0113818351144,0.0176585923089,0.435257120375,0.900061035214
2834580000000,0.011548484856,0.0176241743033,0.442017679432,0.896758826021
2834600000000,0.011713135583,0.017590889567,0.448656879128,0.893454177823
2834620000000,0.0118764637702,0.0175588238655,0.455177964368,0.890148110186
2834640000000,0.0120382509523,0.0175277317233,0.461583058131,0.88684211649
2834659000000,0.0121989635588,0.0174980653753,0.467873469449,0.883538012528
2834680000000,0.0123581226308,0.0174696506422,0.474048447697,0.880238693394
2834700000000,0.0125155524625,0.017442496136,0.480106954114,0.876947223547
2834720000000,0.0126719515971,0.0174169055119,0.486055153296,0.873662670028
2834740000000,0.0128271365842,0.0173929633926,0.491892295565,0.870387798028
2834760000000,0.0129812030753,0.0173706545036,0.497619321012,0.867124420187
2834780000000,0.0131340841723,0.0173497932674,0.503237298937,0.863874239381
2834799000000,0.0132860059765,0.0173306445336,0.508747509726,0.86063877565
2834820000000,0.0134367195917,0.0173131908826,0.514152375651,0.857418825663
2834840000000,0.013584731936,0.0171437937078,0.519488166111,0.854197629748
2834860000000,0.0137320742854,0.0168791104047,0.524688855618,0.851015940249
2834879000000,0.0138808643568,0.0166151945348,0.529783741136,0.847856382027
2834900000000,0.0140311495433,0.0163521694267,0.534773967869,0.844720389648
2834920000000,0.0141829405235,0.016089876204,0.539660534502,0.841609450744
2834941000000,0.0143409747647,0.0158167587444,0.544625156618,0.838407779881
2834966000000,0.0139185385477,0.0164199621702,0.551417449194,0.833951710743
2834980000000,0.0130312919812,0.0177147534354,0.555486492395,0.831234701939
2835000000000,0.0135097874461,0.0169941735379,0.555564606952,0.831189900812
2835020000000,0.0146306193975,0.0133236377247,0.555527084202,0.831262945386
2835040000000,0.0147584648914,0.0113271345825,0.555500644728,0.83130795584
2835060000000,0.014626908604,0.0127566219885,0.555492194298,0.831295220854
2835080000000,0.0145966941669,0.0144220513203,0.555462574684,0.831288318864
2835100000000,0.0153519101112,0.0104272101623,0.555150900268,0.831542584644
2835120000000,0.0177793237707,0.0067949971018,0.554552635047,0.831930945826
2835140000000,0.0178506921976,0.00684494719293,0.554539994436,0.83193743398
2835163000000,0.0153970412057,0.010766746646,0.554610742803,0.831897789549
2835180000000,0.0136078723217,0.0168540324388,0.554694368421,0.831772159334
2835200000000,0.00867706654865,0.0242521051159,0.554633044383,0.831696296728
2835220000000,0.00446314471855,0.0305683971667,0.554706370805,0.831472486389
2835240000000,0.00258750365278,0.0333787004949,0.554733570599,0.831354216221
2835260000000,0.00303493715676,0.0327075636244,0.554743341469,0.83137285831
2835280000000,0.00581019968623,0.0285476208566,0.55473227306,0.831518719061
2835300000000,0.0109377761349,0.0208603864404,0.55466556559,0.831739935124
2835320000000,0.0155045752787,0.0108657743609,0.554525209068,0.831951522386
2835342000000,0.0173983810161,0.00800093568802,0.554524532623,0.831947007979
2835360000000,0.0167795584854,0.00893317779892,0.554542849723,0.831938022074
2835380000000,0.0150798695917,0.0135497275776,0.554595834346,0.831872864651
2835400000000,0.0143061907175,0.0157855865676,0.554693049547,0.831782284584
2835420000000,0.0150587757507,0.014091302837,0.554659408504,0.831821861347
2835440000000,0.0151301521117,0.0117606801793,0.554634535554,0.831873365886
2835460000000,0.0151195004581,0.0118217402057,0.554624886583,0.831879127246
2835480000000,0.0150856642187,0.0132208440931,0.554620819715,0.831861393716
2835500000000,0.014965904271,0.0148220617045,0.554633456866,0.831828141337
2835520000000,0.0150632737326,0.014140377707,0.554635225438,0.831837071911
2835540000000,0.01507129337,0.0138106381437,0.554620738221,0.831852125757
2835560000000,0.015065101249,0.0140594274373,0.554612331133,0.831853675462
2835580000000,0.0150355009658,0.0147163474177,0.554610129855,0.831844316379
2835600000000,0.0150551296455,0.0144747747229,0.554604108763,0.831852214345
2835618000000,0.0150324450994,0.014676926687,0.554599023107,0.83185247309
2835640000000,0.0150493089473,0.0146944735974,0.554592365208,0.831856297205
2835660000000,0.0151331819227,0.0120462365175,0.554613663819,0.831883140168
2835680000000,0.0180752409481,0.00717416938179,0.553775866368,0.832438650464
2835700000000,0.0198313201605,0.00473577685895,0.553622141729,0.832518357362
2835720000000,0.0190857124582,0.0060846365856,0.553647394561,0.832510225326
2835740000000,0.0157900926279,0.0112868164034,0.553748955277,0.832457431512
2835760000000,0.0144332720786,0.0156186547192,0.5538803787,0.832324614783
2835780000000,0.0146648719264,0.0152719947349,0.553896279285,0.832316417898
2835803000000,0.0158227938807,0.0118116010259,0.553857698253,0.83237718335
2835820000000,0.0159284211227,0.0121892292648,0.553876527137,0.832357195426
2835838000000,0.0158789676909,0.0134482919641,0.553915107062,0.832313075709
2835860000000,0.0161428371923,0.0123953589983,0.55389343563,0.83233876868
2835880000000,0.0162246197248,0.0124344457974,0.553873136268,0.832350103739
2835900000000,0.016308667384,0.0126928390359,0.553875155098,0.832343217532
2835920000000,0.01642516346,0.012321047063,0.553859811327,0.832356723527
2835940000000,0.0165369417715,0.0123876122172,0.553855191219,0.832356596526
2835960000000,0.01657211714,0.0124086648312,0.553851783685,0.832357850735
2835980000000,0.0165722232568,0.0124085918006,0.553852537953,0.832357347819
2836000000000,0.0165723857885,0.012408636298,0.553852875954,0.832357119013
2836020000000,0.0165723624113,0.012408570206,0.553853012765,0.832357029429
2836040000000,0.0165729048096,0.0124078975135,0.553853637633,0.832356612869
2836060000000,0.0165729265335,0.0124079464628,0.553853698975,0.832356570889
2836079000000,0.0165728121217,0.0124080050185,0.553853858137,0.832356466387
2836099000000,0.0165730056159,0.0124077884102,0.553854001746,0.832356370205
2836120000000,0.0165731619327,0.012407568729,0.553854219782,0.832356225285
2836140000000,0.0165731538694,0.0124074804693,0.55385440767,0.83235610174
2836160000000,0.0165732932827,0.0124077201235,0.553854542967,0.832356005364
2836180000000,0.0165733303135,0.0124077236119,0.55385455988,0.832355993321
2836200000000,0.0165733238601,0.0124077553835,0.553854544364,0.8323560033
2836219000000,0.0165732083489,0.0124074328164,0.553854558804,0.8323560008
2836240000000,0.0165730665289,0.0124075102647,0.553854695287,0.832355911653
2836260000000,0.0165731202052,0.0124074115272,0.553854766414,0.832355864728
2836280000000,0.016573113732,0.0124073446661,0.553854809044,0.832355837487
2836300000000,0.0165729645221,0.0124075501255,0.553854833682,0.832355821001
2836320000000,0.0165730699708,0.0124078157752,0.553854837258,0.832355812562
2836340000000,0.0165729756918,0.0124079416258,0.55385482312,0.832355821971
2836360000000,0.016572906252,0.0124079066123,0.553854818182,0.832355827161
2836379000000,0.0165729586812,0.0124077080959,0.553854815339,0.832355830968
2836400000000,0.0165728279495,0.0124077113991,0.553854807608,0.832355838666
2836420000000,0.0165728185136,0.012407735994,0.553854777766,0.832355858344
2836440000000,0.0165729030149,0.0124074337412,0.553854621747,0.832355964983
2836459000000,0.0165729127782,0.0124068810227,0.553854651802,0.832355953029
2836480000000,0.0165728958544,0.0124070462605,0.553854709728,0.832355912359
2836500000000,0.0165729135911,0.0124069660332,0.553854762496,0.832355878089
2836520000000,0.0165729319454,0.0124069509378,0.55385481608,0.832355842294
2836540000000,0.0165730452082,0.0124070336371,0.55385482814,0.832355830781
2836560000000,0.0165729986854,0.0124068961846,0.553854867424,0.832355807616
2836580000000,0.0165730300096,0.0124072083415,0.553854897641,0.832355782233
2836600000000,0.0165729714899,0.0124070497801,0.553854894797,0.832355787654
2836620000000,0.0165730391538,0.0124069021545,0.553854890941,0.832355791073
2836640000000,0.0165730934973,0.0124070949265,0.553854905651,0.832355777329
2836660000000,0.016573353632,0.0124070191348,0.553854930939,0.832355756453
2836680000000,0.016573260609,0.012407478265,0.553854941477,0.832355744449
2836700000000,0.0165730783756,0.0124070608698,0.553854910969,0.8323557746
2836719000000,0.016573076994,0.0124069283636,0.553854914778,0.832355774067
2836740000000,0.0165728337795,0.0124069686436,0.55385488862,0.832355795715
2836760000000,0.0165738218479,0.0124050858251,0.553856351842,0.832354830465
2836781000000,0.0165732107794,0.0124068518968,0.553856004488,0.832355047442
2836800000000,0.0165731444708,0.012407090702,0.553855601815,0.832355313145
2836820000000,0.0165730496709,0.0124068625357,0.553855296996,0.832355521263
2836840000000,0.0165733372535,0.0124067889502,0.553855035545,0.832355690604
2836860000000,0.0165736183959,0.0124070767721,0.553854942319,0.832355742749
2836880000000,0.0165735495492,0.0124069713876,0.553854701341,0.83235590604
2836900000000,0.0165735919326,0.0124071370147,0.553854124241,0.832356286732
2836920000000,0.0165667802407,0.0123957143289,0.553853534193,0.832356985145
2836940000000,0.0165736651083,0.0124060280095,0.553862498367,0.832350729559
2836960000000,0.0165738676573,0.012406298015,0.553868696384,0.832346597185
2836980000000,0.0165740388685,0.0124062711365,0.553873058284,0.83234369162
2837000000000,0.0165741539472,0.0124064273349,0.553873232787,0.832343570879
2837020000000,0.0165739851107,0.0124063128235,0.553873666087,0.832343287614
2837040000000,0.0165739552987,0.0124064628353,0.553874139924,0.832342970661
2837060000000,0.0165738916029,0.0124067412027,0.5538743081,0.832342855869
2837081000000,0.0165737640036,0.0124069588164,0.553874377255,0.832342809148
2837100000000,0.0165738628794,0.0124071877897,0.553874381468,0.832342800963
2837120000000,0.0165736458568,0.0124072030844,0.55387439847,0.832342793742
2837138000000,0.0165738158078,0.0124070566739,0.553874357925,0.832342819521
2837160000000,0.0165737667253,0.0124071554426,0.55387431314,0.832342848827
2837180000000,0.0165736270536,0.0124071510708,0.553874269838,0.832342880488
2837200000000,0.0165738567444,0.0124072591565,0.553874225024,0.832342904125
2837220000000,0.0165739815659,0.0124072511108,0.553874198098,0.832342919677
2837240000000,0.016573833441,0.0124074350768,0.553874170093,0.83234293852
2837260000000,0.0165739085515,0.0124074555657,0.553874149832,0.832342950201
2837280000000,0.0165742425069,0.0124074965519,0.553874138196,0.832342950683
2837301000000,0.0165741268353,0.0124077561474,0.553874117096,0.832342963158
2837320000000,0.0165740889381,0.0124076558679,0.553874107614,0.832342971717
2837340000000,0.0165738690651,0.0124078364386,0.55387470194,0.832342577915
2837360000000,0.0165736950437,0.0124079356084,0.553874370972,0.832342800141
2837380000000,0.0165736701031,0.0124075915473,0.553875563424,0.83234201226
2837400000000,0.0165733878952,0.0124073279772,0.553876501558,0.832341397534
2837420000000,0.016573575438,0.0124074554776,0.553876891848,0.832341132182
2837440000000,0.0165735005643,0.0124073142818,0.553877041982,0.832341035872
2837460000000,0.0165735772246,0.012407477774,0.553877070888,0.832341012673
2837480000000,0.0165734732187,0.0124075034744,0.553877048443,0.832341029297
2837500000000,0.0165736921556,0.0124074119956,0.553877003607,0.832341056137
2837520000000,0.0165735825092,0.0124074833839,0.553876943753,0.832341097086
2837540000000,0.0165734609178,0.0124074499778,0.553876881424,0.832341141481
2837560000000,0.0165734926556,0.0124073476705,0.553876821371,0.832341182336
2837579000000,0.016573286312,0.0124073942399,0.553876761471,0.832341225611
2837600000000,0.0165734914145,0.0124074740702,0.553876651227,0.832341293698
2837620000000,0.0165736406857,0.0124074279005,0.553876432785,0.832341436775
2837640000000,0.0165736909107,0.0124070716178,0.553875809278,0.832341855995
2837660000000,0.0165737251857,0.0124073269884,0.553875512313,0.832342049118
2837680000000,0.0165735349306,0.0124072724594,0.553875366835,0.832342150526
2837700000000,0.0165735033676,0.0124071800245,0.553875130435,0.832342309844
2837721000000,0.0165733717989,0.0124069380629,0.55387496161,0.832342428413
2837740000000,0.0165734086592,0.0124067343245,0.553874846266,0.832342507471
2837760000000,0.0165734773614,0.0124069942627,0.553874858927,0.832342493803
2837780000000,0.016573492387,0.0124069484014,0.55387486902,0.832342487471
2837800000000,0.0165735476186,0.0124064893687,0.553874898644,0.832342473501
2837820000000,0.0165735145646,0.0124067012696,0.553874917061,0.832342458745
2837840000000,0.0165851378811,0.0124157783531,0.553874210394,0.832342562116
2837860000000,0.0165735222718,0.0124068581666,0.553875092534,0.832342339486
2837880000000,0.0165736401418,0.0124068496605,0.553875304747,0.83234219605
2837900000000,0.016573513456,0.012406869709,0.553875396547,0.832342137186
2837920000000,0.0165735549987,0.0124066038553,0.553875471456,0.832342090474
2837940000000,0.0158518357995,0.0135028419202,0.553858515264,0.832350369514
2837959000000,0.0135119192778,0.0170089939224,0.553900929121,0.832299154681
2837980000000,0.0124434716496,0.018611918206,0.553943310514,0.832253305942
2838000000000,0.0137529426607,0.016644286671,0.553923191556,0.832287764025
2838020000000,0.0168260485432,0.0120263258956,0.553840070984,0.832366161823
2838040000000,0.0167698503353,0.0121319473223,0.553810992568,0.832385110682
2838060000000,0.0165797771823,0.01239703058,0.553807773461,0.832387154319
2838080000000,0.0165714527354,0.0124081937107,0.553808486287,0.832386679494
2838100000000,0.0165720311509,0.0124076969798,0.553805630771,0.832388575225
2838120000000,0.0165715078236,0.0124076411918,0.553805096437,0.832388941979
2838140000000,0.0165713830505,0.0124077600128,0.553804751691,0.832389172058
2838160000000,0.0165712425649,0.0124077150054,0.553804541778,0.832389315185
2838180000000,0.0165712429616,0.012407630918,0.553804403002,0.832389408761
2838200000000,0.0165712604845,0.0124074715592,0.553804034355,0.832389656055
2838220000000,0.0165712758439,0.0124074185146,0.553803376273,0.832390094374
2838240000000,0.0165712549236,0.0124075588871,0.553803048562,0.832390310729
2838260000000,0.0165715112039,0.0124072848566,0.553802773307,0.832390492844
2838279000000,0.0165712381354,0.012407080386,0.553802589702,0.832390623483
2838300000000,0.0165711892746,0.0124075102084,0.553802535819,0.832390653898
2838320000000,0.0165711778635,0.0124075806394,0.553802410323,0.83239073657
2838340000000,0.0165711468005,0.0124075735563,0.553802280971,0.832390823353
2838360000000,0.0165711711412,0.0124077748218,0.553802249607,0.832390840736
2838380000000,0.0165711480122,0.012407963239,0.553802134375,0.832390915053
2838400000000,0.0165711649985,0.0124077667934,0.553802046212,0.832390976299
2838420000000,0.0165713467772,0.0124078948105,0.553802092552,0.832390939942
2838440000000,0.0165713382114,0.0124078250779,0.553802127558,0.832390917862
2838460000000,0.0165714783734,0.012407680309,0.553802167337,0.832390890764
2838478000000,0.0165711498439,0.0124081873826,0.553801580012,0.832391280502
2838500000000,0.0165712399132,0.0124077681309,0.553804968606,0.832389030469
2838520000000,0.0165711664367,0.0124078368537,0.553805449252,0.832388711124
2838539000000,0.0165712065787,0.0124077146488,0.553805580985,0.832388624502
2838558000000,0.0165712357597,0.0124078369846,0.553805541752,0.832388648199
2838580000000,0.0165713476517,0.0124079399986,0.553805441079,0.832388711416
2838600000000,0.0165713702197,0.0124077086246,0.553804973323,0.832389025624
2838620000000,0.0165713325567,0.0124074055583,0.553804345852,0.832389448359
2838639000000,0.0165712837936,0.0124077166818,0.553803896674,0.832389743539
2838660000000,0.0165711295291,0.0124079034425,0.553803675082,0.832389891255
2838680000000,0.016570973542,0.0124079908306,0.553803457997,0.832390037489
2838699000000,0.0165708512439,0.0124076365191,0.553803304125,0.832390147578
2838720000000,0.0165707874773,0.0124078772801,0.553803270014,0.832390167953
2838740000000,0.0165705572918,0.0124079774692,0.553803180516,0.832390230587
2838760000000,0.0165704351375,0.0124078064392,0.553803090335,0.832390295567
2838779000000,0.0165703450769,0.0124079858201,0.553803083626,0.832390299149
2838800000000,0.0165701140957,0.0124078026403,0.55380299331,0.832390366567
2838820000000,0.016570019742,0.0124075679984,0.553802892174,0.83239043923
2838840000000,0.0165700497523,0.0124077836262,0.553802877459,0.832390445208
2838860000000,0.0165700151883,0.0124079551858,0.553802774485,0.83239051185
2838880000000,0.0165700503901,0.0124079072353,0.553802683111,0.832390572656
2838900000000,0.0165701722774,0.0124081157537,0.553802723811,0.832390540044
2838920000000,0.0165702222067,0.0124080039775,0.553802752161,0.832390521854
2838940000000,0.0165702995446,0.0124079185142,0.553802793657,0.832390493981
2838960000000,0.0165702840494,0.0124085729112,0.553802522929,0.832390664653
2838980000000,0.0165705378738,0.0124078266084,0.553805352888,0.832388787903
2839000000000,0.0165704507413,0.0124076284753,0.553805990512,0.832388368366
2839020000000,0.0165704136948,0.0124077407218,0.553806202453,0.832388226421
2839040000000,0.0165705200744,0.0124078100038,0.553806202268,0.832388223394
2839060000000,0.0165704195955,0.0124078572144,0.553806113995,0.83238828342
2839080000000,0.016570456656,0.0124078767486,0.553805851258,0.832388457196
2839100000000,0.0165704609581,0.012407658049,0.553805135614,0.832388936503
2839120000000,0.0165703615658,0.0124077245911,0.553804643202,0.832389265101
2839138000000,0.016570385156,0.0124079516715,0.553804388066,0.832389430994
2839158000000,0.0165704973347,0.0124080212803,0.553804147377,0.832389587858
2839180000000,0.0165705176895,0.0124078705052,0.553803973595,0.832389705321
2839199000000,0.0165705477968,0.0124081344511,0.553803928967,0.832389730478
2839220000000,0.0165705170942,0.012408295172,0.553803833266,0.832389792366
2839240000000,0.0165703970815,0.0124082967767,0.553803740256,0.832389856612
2839260000000,0.016570437076,0.0124084755973,0.553803734483,0.832389856991
2839280000000,0.0165705074313,0.0124085150828,0.553803641273,0.832389917016
2839300000000,0.0165704672553,0.0124082607035,0.553803541564,0.832389987946
2839322000000,0.0165702918053,0.0124083568452,0.553803529536,0.832389998008
2839340000000,0.0165703461947,0.0124082306394,0.553803431665,0.832390063922
2839360000000,0.0165702964397,0.0124082532886,0.553803333352,0.832390129984
2839377000000,0.0165701750093,0.0124083560307,0.553803358579,0.832390114086
2839400000000,0.0165701560942,0.0124084730047,0.553803366178,0.832390107663
2839420000000,0.016570075553,0.0124081860319,0.553803415632,0.832390080641
2839440000000,0.0165699141597,0.0124084295098,0.553803461928,0.832390049423
2839460000000,0.0165700203538,0.0124086035603,0.553805756345,0.832388518195
2839478000000,0.0165697986688,0.0124080204867,0.553806484443,0.83238804688
2839500000000,0.0165697615307,0.012408208842,0.553806799112,0.832387835455
2839520000000,0.0165696872793,0.012408274657,0.553806846926,0.83238780414
2839538000000,0.0165697296543,0.0124083823284,0.553806775092,0.832387849484
2839560000000,0.0165698556104,0.0124085818357,0.553806640377,0.832387933632
2839580000000,0.0165700411777,0.012408358448,0.553805936603,0.832388401504
2839600000000,0.016570250277,0.0124081443467,0.553805393751,0.832388761705
2839619000000,0.0165702840602,0.0124082596125,0.553805105936,0.832388950803
2839640000000,0.0165704120426,0.0124081130353,0.553804842339,0.832389125816
2839660000000,0.0165704757705,0.0124079800986,0.55380465008,0.832389254443
2839680000000,0.0165704582545,0.012408183907,0.553804595036,0.832389288375
2839700000000,0.0165704886554,0.0124081863608,0.553804495294,0.832389354094
2839720000000,0.016570360673,0.0124078660666,0.553804408805,0.832389418959
2839740000000,0.0165701268692,0.012408276802,0.553804398724,0.832389424198
2839760000000,0.016570179653,0.0124082597051,0.553804308075,0.832389483712
2839780000000,0.0165702705601,0.0124080446496,0.553804208762,0.832389551183
2839800000000,0.0165701452307,0.0124081634986,0.553804196898,0.8323895598
2839820000000,0.0165701215716,0.0124081606918,0.553804096024,0.832389627426
2839840000000,0.0165701691354,0.0124079583463,0.55380399835,0.83238969448
2839860000000,0.0165701523263,0.0124081685932,0.553804006786,0.832389686068
2839880000000,0.0165701337545,0.0124081769866,0.553803999569,0.832389691114
2839900000000,0.0165700816342,0.0124081497161,0.553804038298,0.832389666791
2839920000000,0.0165699193439,0.0124080973243,0.553804110719,0.83238962262
2839940000000,0.0165768998132,0.012397918601,0.553804004299,0.832389706105
2839960000000,0.0165696311718,0.0124079237977,0.553806957844,0.832387736691
2839980000000,0.0165696154335,0.0124080155194,0.553807396939,0.832387443497
2840000000000,0.0165695532656,0.0124079858619,0.553807505346,0.832387373051
2840020000000,0.0165696667643,0.0124078526518,0.553807462355,0.83238740138
2840040000000,0.0165696441011,0.012407942989,0.553807358074,0.832387469865
2840060000000,0.0165697195925,0.0124076792262,0.553806794215,0.832387847442
2840076000000,0.0165696268174,0.0124077408818,0.553806182039,0.832388255665
2840098000000,0.0165695329486,0.0124079641755,0.553805852685,0.832388473331
2840119000000,0.0165697950007,0.012408008514,0.55380555478,0.832388665657
2840137000000,0.0165699643719,0.0124078075749,0.553805343402,0.832388805914
2840156000000,0.0165697167726,0.012407991218,0.553805275375,0.832388853365
2840181000000,0.0165697321616,0.012407833998,0.553805170168,0.832388925399
2840200000000,0.0165699383373,0.0124074911213,0.55380508246,0.83238898476
2840219000000,0.0165700244168,0.0124076771383,0.553805077898,0.832388983308
2840240000000,0.0165699149019,0.0124076969557,0.553804987838,0.832389045112
2840260000000,0.016569967483,0.0124075683141,0.553804887911,0.832389112466
2840280000000,0.0165696863005,0.0124078459766,0.553804873334,0.832389123623
2840300000000,0.0165696780765,0.0124076786374,0.553804775955,0.832389191069
2840319000000,0.0165696911144,0.012407616625,0.553804672503,0.832389260562
2840340000000,0.0165697294523,0.0124079904275,0.553804665238,0.832389259061
2840360000000,0.0165698023856,0.0124079350878,0.553804642592,0.832389273501
2840380000000,0.0165697784751,0.0124077947122,0.553804664728,0.832389261342
2840400000000,0.0165698359983,0.0124081564154,0.553804748988,0.832389198745
2840420000000,0.0165699379449,0.0124087344387,0.553804328713,0.832389467716
2840440000000,0.0165699141234,0.0124077857949,0.553807365691,0.832387461765
2840459000000,0.0165699318794,0.0124079023471,0.553807951074,0.832387070205
2840480000000,0.0165697891453,0.0124079950817,0.553808134269,0.83238694978
2840500000000,0.0165697127354,0.012408036412,0.553808121397,0.832386959248
2840520000000,0.016569859689,0.0124080863545,0.553808029129,0.832387016967
2840540000000,0.0165700015161,0.0124079236145,0.553807654591,0.832387265759
2840559000000,0.0165700234593,0.0124076288069,0.553806974086,0.832387722473
2840580000000,0.0165700600792,0.0124077411991,0.553806602237,0.832387967469
2840600000000,0.0165700777867,0.0124078228698,0.553806269563,0.832388187234
2840619000000,0.0165700892268,0.0124076998957,0.553806033182,0.832388346109
2840639000000,0.0165700230579,0.01240782634,0.553805951711,0.832388399746
2840660000000,0.0165700825112,0.0124078242262,0.553805833387,0.832388477317
2840680000000,0.0165703345602,0.0124074942476,0.553805741063,0.832388538643
2840700000000,0.0165704855333,0.0124075230982,0.55380574024,0.832388535755
2840720000000,0.0165703167529,0.012407340456,0.553805655723,0.832388598069
2840740000000,0.0165702521601,0.0124071019877,0.553805559142,0.832388667166
2840760000000,0.0165703001532,0.0124073304002,0.55380554662,0.832388671138
2840780000000,0.0165704966574,0.0124075034273,0.55380544294,0.832388733627
2840800000000,0.016570531981,0.0124075223128,0.553805336066,0.832388803748
2840820000000,0.0165705107481,0.0124077697072,0.553805326413,0.832388806905
2840840000000,0.0165706588144,0.0124077076323,0.553805283629,0.832388833348
2840860000000,0.016570747892,0.0124075011971,0.55380529283,0.83238882853
2840880000000,0.0165704270311,0.012407865687,0.553805382575,0.832388769775
2840900000000,0.0165704246561,0.0124082284465,0.55380532292,0.832388804105
2840920000000,0.0165709036021,0.0124081939972,0.553807762813,0.832387171768
2840940000000,0.016570464705,0.0124074554182,0.553808484248,0.832386711525
2840960000000,0.0165705551053,0.012407446579,0.553808764778,0.832386523214
2840980000000,0.0165705428773,0.0124076508742,0.553808792005,0.832386502297
2841000000000,0.016570593804,0.0124076383294,0.553808715762,0.832386552197
2841019000000,0.0165703630191,0.0124076385814,0.553808574816,0.832386650563
2841040000000,0.0165706501451,0.0124074572072,0.5538077909,0.832387169109
2841058000000,0.0165705797471,0.0124075570943,0.553807367352,0.832387450819
2841080000000,0.0165705113224,0.0124077861271,0.553806995042,0.832387696474
2841098000000,0.0165704508366,0.0124075810278,0.553806733999,0.832387874413
2841116000000,0.0165703687417,0.0124077670231,0.553806634455,0.832387939504
2841140000000,0.0165704649101,0.0124077771066,0.553806504428,0.832388023949
2841160000000,0.0165704494954,0.012407624992,0.553806401621,0.832388094923
2841180000000,0.0165705013554,0.0124079006427,0.55380639545,0.832388093887
2841200000000,0.0165704152255,0.0124079539764,0.553806307645,0.832388153225
2841220000000,0.0165703424841,0.0124077689577,0.553806211265,0.832388221555
2841239000000,0.0165701887184,0.0124079978296,0.553806199312,0.832388229157
2841260000000,0.016570275986,0.0124078090563,0.553806103675,0.832388293864
2841279000000,0.0165702989203,0.0124076288013,0.553805999874,0.832388365155
2841300000000,0.016570477967,0.0124078962536,0.553805987307,0.832388365964
2841320000000,0.0165704458675,0.0124078614217,0.553805924518,0.832388408898
2841340000000,0.0165704410493,0.0124077479188,0.553805915959,0.83238841638
2841359000000,0.0165703697449,0.0124079623895,0.553806007446,0.832388353734
2841380000000,0.0165703304512,0.0124079463882,0.553806052139,0.83238832502
2841395000000,0.016570407634,0.0124173614073,0.553806396967,0.832387953664
2841420000000,0.0165700448297,0.0124077973278,0.55380894508,0.832386408184
2841440000000,0.0165698904259,0.0124080306173,0.553809341125,0.832386144281
2841460000000,0.0165697083074,0.0124080539542,0.553809428661,0.832386089318
2841480000000,0.0165694991433,0.0124082233492,0.553809371061,0.832386129279
2841500000000,0.0165697466199,0.0124084397111,0.553809257126,0.832386196932
2841520000000,0.0165699619228,0.0124082297685,0.553808601857,0.832386631743
2841540000000,0.0165702894379,0.012408409784,0.553808117382,0.832386944874
2841560000000,0.0165702849597,0.0124083354357,0.55380771239,0.832387215522
2841583000000,0.0165703887796,0.0124080857944,0.553807423031,0.832387409695
2841600000000,0.0165703970347,0.0124084616578,0.55380730067,0.832387485337
2841620000000,0.0165703524847,0.0124083977304,0.553807159011,0.832387581426
2841640000000,0.0165703970065,0.0124083592238,0.553807045732,0.832387656481
2841660000000,0.0165704893104,0.0124085998538,0.553807038601,0.832387655801
2841680000000,0.0165706334858,0.0124085413323,0.553806954639,0.832387709665
2841700000000,0.0165710001044,0.01240846239,0.553806857835,0.83238776795
2841720000000,0.0165710256467,0.0124087223447,0.553806846212,0.832387771299
2841740000000,0.016571052498,0.0124086958501,0.553806748108,0.83238783643
2841760000000,0.0165709477058,0.0124083276125,0.553806647667,0.832387910831
2841780000000,0.0165709331007,0.0124085330235,0.55380663441,0.83238791688
2841799000000,0.0165710238669,0.0124085397497,0.553806555138,0.832387967714
2841820000000,0.0165710571817,0.0124083757405,0.553806531979,0.832387984904
2841840000000,0.0165711100616,0.0124086415689,0.553806621682,0.832387920207
2841860000000,0.0165711048746,0.0124087794529,0.553806669746,0.832387886277
2841879000000,0.0165710204881,0.0124091961928,0.55380617758,0.832388209193
2841900000000,0.0165710155651,0.0124083842633,0.553809357943,0.832386105421
2841919000000,0.0165710798136,0.0124084194542,0.553809898462,0.832385743995
2841941000000,0.0165712869897,0.0124084952362,0.553810055871,0.832385634012
2841960000000,0.0165711401458,0.0124083728044,0.553810034574,0.83238565293
2841980000000,0.016571183487,0.0124083750613,0.553809939751,0.832385715122
2842000000000,0.016571338795,0.0124079089166,0.553809462522,0.832386036493
2842020000000,0.0165712200692,0.0124079138843,0.553808913509,0.832386404055
2842040000000,0.0165712929815,0.012408135526,0.553808457689,0.832386702569
2842060000000,0.0165714580011,0.0124078791588,0.55380813579,0.832386917273
2842080000000,0.0165713390745,0.0124080542166,0.553807995896,0.832387010106
2842100000000,0.0165714358333,0.0124079219708,0.553807840986,0.832387113217
2842120000000,0.0165713742868,0.0124078935691,0.553807717878,0.832387196772
2842140000000,0.0165712605064,0.0124082483588,0.553807704129,0.832387202896
2842160000000,0.0165709677334,0.0124081975431,0.553807620917,0.832387264845
2842180000000,0.0165711630007,0.0124079530565,0.553807528699,0.832387325957
2842200000000,0.016571316062,0.0124082862841,0.553807516532,0.832387326038
2842220000000,0.016571446763,0.0124082221409,0.553807420373,0.832387388369
2842240000000,0.0165714995258,0.0124080953861,0.553807315231,0.832387459161
2842260000000,0.016571521643,0.0124083375251,0.553807300214,0.832387465103
2842280000000,0.0165713599559,0.0124083224135,0.553807210459,0.832387528263
2842300000000,0.0165713968091,0.0124080269127,0.553807172626,0.832387557106
2842320000000,0.0165713605896,0.012408363955,0.553807250763,0.832387500816
2842340000000,0.0165714934501,0.0124084231485,0.553807305085,0.832387461146
2842360000000,0.0165716126387,0.0124089282918,0.553807134235,0.832387564914
2842380000000,0.0165717869862,0.0124084407236,0.553809769709,0.832385815262
2842400000000,0.0165713703822,0.0124079511057,0.553810451255,0.832385377402
2842420000000,0.0165715855718,0.0124080006705,0.553810695382,0.832385209955
2842440000000,0.0165716879994,0.0124080146625,0.553810710305,0.832385197778
2842460000000,0.0165717172247,0.0124078807593,0.55381063054,0.832385252263
2842480000000,0.0165716658774,0.0124079078653,0.553810360624,0.832385432464
2842500000000,0.0165716310505,0.0124077287253,0.553809729035,0.832385856042
2842522000000,0.0169666497422,0.0118096811598,0.553812326166,0.832384869885
2842538000000,0.0182375542111,0.00989939510545,0.553788734285,0.832398601256
2842560000000,0.0203046219025,0.00680036407468,0.553655763662,0.832470283399
2842580000000,0.0223111071388,0.00377115968551,0.553264830582,0.832698036562
2842597000000,0.0239265332364,0.00133023013784,0.552892681418,0.832907818627
2842620000000,0.023141120523,0.00250704660842,0.552729222572,0.833035779407
2842640000000,0.0192042628705,0.008464640468,0.552753863655,0.833080255656
2842660000000,0.0141152543066,0.0161198458445,0.552761685169,0.833063880849
2842680000000,0.00833877547503,0.0248208465531,0.55290423596,0.832833294398
2842698000000,0.000535379735897,0.036561612323,0.552953831166,0.8324091677
2842722000000,-0.00741511637444,0.0485305397643,0.552851824057,0.831832112506
2842740000000,-0.0133413538289,0.0574428074289,0.552754428557,0.831254999301
2842760000000,-0.0170348847869,0.062994246238,0.552667985181,0.830842726271
2842780000000,-0.0185292356509,0.0652385388308,0.552631516831,0.830661788626
2842800000000,-0.0178336016231,0.0641910615533,0.552670003536,0.830733012141
2842820000000,-0.0149553884597,0.0598614672798,0.5527727172,0.831044682439
2842840000000,-0.00985872573101,0.0521962117365,0.552903273132,0.831550558636
2842861000000,-0.00249378926387,0.0411157719527,0.552999189929,0.832162946934
2842880000000,0.00720949253129,0.0265078290948,0.552968454112,0.832749210129
2842899000000,0.0174627245224,0.0110843367348,0.552723279642,0.833108136362
2842919000000,0.02043030596,0.00658680220843,0.552604882518,0.833166886316
2842940000000,0.0208702548333,0.00592326748077,0.552571023078,0.833183420275
2842960000000,0.0187662119966,0.00909523958194,0.552629389604,0.83316616809
2842980000000,0.0159519412365,0.013337584225,0.552719275576,0.833108064314
2843000000000,0.0163332971354,0.0127633649788,0.552735347055,0.833099007342
2843020000000,0.0165553075929,0.0124281156147,0.55272350307,0.833107551812
2843040000000,0.0165557960506,0.0124281956323,0.552726061104,0.833105843784
2843060000000,0.0165557033986,0.0124281547894,0.552726780566,0.833105368905
2843080000000,0.0165555722151,0.012428207488,0.552727100599,0.833105158399
2843100000000,0.0170375953202,0.011709437987,0.552433396041,0.833300637433
2843120000000,0.0184155134949,0.00962519610405,0.551810537705,0.833710594235
2843140000000,0.020660894412,0.00621093117869,0.551118633886,0.834147950402
2843160000000,0.0228943314833,0.00281759045484,0.550566149389,0.834472783209
2843180000000,0.0247002640417,6.91997422396e-05,0.550168211114,0.834688463828
2843200000000,0.0246158881567,0.000187923062071,0.549897026974,0.834869620037
2843220000000,0.022009534259,0.00413772609721,0.549738915511,0.835036277294
2843240000000,0.0168259372246,0.0120083942605,0.549680647504,0.835119076577
2843260000000,0.0157077576692,0.0137071770084,0.54946625997,0.83525577448
2843280000000,0.0168392357978,0.0119865160723,0.549293409327,0.8353738768
2843300000000,0.0168897066258,0.0119089601355,0.549105417555,0.835497549302
2843320000000,0.0165325170194,0.0124519295306,0.548856867915,0.83566007675
2843339000000,0.0166920273009,0.0122081194861,0.548644239808,0.835800117354
2843360000000,0.0166349984538,0.0122944974481,0.548447186958,0.835929306387
2843380000000,0.0166505059362,0.0122705637358,0.548247053607,0.836060621085
2843400000000,0.0166479679692,0.0122737566199,0.548055797232,0.836186009917
2843420000000,0.0166692245889,0.0122401296023,0.547840496276,0.836327152984
2843440000000,0.0166563419456,0.0122596616046,0.547639812021,0.836458548441
2843460000000,0.0166661284052,0.0122435957445,0.547439741884,0.836589543045
2843480000000,0.016682394914,0.0122179500259,0.547223389172,0.836731128703
2843500000000,0.0166856820691,0.0122118070494,0.546980782567,0.836889767702
2843520000000,0.0166877893823,0.0122080544781,0.546763194202,0.837031953128
2843540000000,0.0166917934639,0.0122008654444,0.54651652802,0.837193052715
2843560000000,0.0166932520775,0.0121975782365,0.546305369667,0.83733087695
2843580000000,0.0166922253921,0.0121984730485,0.546086899021,0.837473382016
2843600000000,0.0166892638551,0.012202279708,0.545892930159,0.837599833838
2843620000000,0.0166877654578,0.0122034771604,0.545672102789,0.83774372565
2843640000000,0.0166733998334,0.012224352235,0.545440897838,0.837894259388
2843660000000,0.0166569632531,0.012248868785,0.54526517283,0.838008593087
2843680000000,0.0166696210406,0.0122284255599,0.545070406606,0.838135335841
2843700000000,0.0166592331402,0.012243524941,0.544839986823,0.838285127392
2843720000000,0.0165378189415,0.0122522435941,0.544695959185,0.838380996397
2843740000000,0.0166302552196,0.0122865888502,0.544410138916,0.838564293892
2843760000000,0.0166118656353,0.0123140829755,0.544221922466,0.838686418388
2843780000000,0.0164749173047,0.0125605055408,0.544089851198,0.838771151521
2843800000000,0.0166003992686,0.0123302973422,0.543971388752,0.838848924855
2843820000000,0.0164843331499,0.0125065530884,0.543712855533,0.839016199855
2843840000000,0.0164979631229,0.0124866032419,0.543476117935,0.8391695962
2843860000000,0.0164610918184,0.0125415094002,0.543224274283,0.839332550797
2843880000000,0.016454280111,0.012550958312,0.543031070845,0.839457554739
2843900000000,0.0164339999287,0.0125819183664,0.542806794768,0.839602526515
2843920000000,0.0164084939243,0.0126215803407,0.542567547458,0.839757056227
2843940000000,0.0164056380114,0.012625427974,0.542371151869,0.839883912949
2843960000000,0.0164028711351,0.0126286583714,0.542190946872,0.840000261867
2843980000000,0.0164006990048,0.0126316365514,0.542041830491,0.840096490189
2844000000000,0.0163978971665,0.0126351121606,0.541850486548,0.840219919507
2844020000000,0.0163453667631,0.0127159093558,0.541698897567,0.84031746323
2844040000000,0.016377694807,0.0126649229314,0.541487566463,0.840453797782
2844060000000,0.0163923619419,0.0126406487184,0.541291314082,0.840580286332
2844080000000,0.0164366843856,0.0125708339688,0.541043368099,0.840740080748
2844099000000,0.0164551872711,0.0125408878939,0.540827834704,0.840878829649
2844120000000,0.0164801093104,0.0125009828982,0.5405860657,0.841034385144
2844140000000,0.0165076440125,0.0124571314399,0.540334389612,0.841196210743
2844160000000,0.0165224194465,0.0124333652076,0.540115690001,0.841336711727
2844180000000,0.0165409833386,0.0124028414246,0.53988901811,0.84148227166
2844200000000,0.0165557203804,0.0123790725105,0.539665737294,0.841625545404
2844220000000,0.0165644935304,0.0123649270121,0.53947195465,0.841749806225
2844240000000,0.0165767304724,0.0123450860985,0.539256147399,0.841888126979
2844260000000,0.0165798875252,0.0123393161374,0.539031866097,0.842031766585
2844280000000,0.0165814240256,0.0123355629497,0.538802755752,0.842178413792
2844300000000,0.0165728095439,0.0123484816141,0.538666666248,0.842265444892
2844319000000,0.0163958986715,0.0132572247877,0.539068323692,0.841998077723
2844340000000,0.0164649907897,0.0143172894392,0.540096724592,0.841320062394
2844360000000,0.0164148413422,0.0136475982664,0.541079859867,0.840700232718
2844380000000,0.0164085028861,0.0130498699563,0.542144716818,0.840023552023
2844400000000,0.0164363498963,0.0125789924255,0.543167504549,0.839369213966
