%time,field.position.x,field.position.y,field.position.z,field.orientation.x,field.orientation.y,field.orientation.z,field.orientation.w
2824494000000,0.498015490459,-0.208022551085,-1.5453667481,0.00129787480002,0.0192006185943,-0.000185452137605,0.999814791536
2824497000000,0.498015428693,-0.208022540241,-1.54536676111,0.00129790927859,0.0192005203853,-0.000185464610751,0.999814793375
2824502000000,0.498015467656,-0.208022544041,-1.54536674912,0.00129787836609,0.0192005900247,-0.000185462370461,0.999814792078
2824504000000,0.49801551444,-0.208022550917,-1.54536674904,0.00129787475204,0.0192006186821,-0.000185452384691,0.999814791534
2824511000000,0.498015452676,-0.208022540072,-1.54536676205,0.00129790922421,0.0192005204834,-0.000185464858663,0.999814793373
2824516000000,0.498015491637,-0.208022543873,-1.54536675006,0.00129787831681,0.0192005901144,-0.000185462621971,0.999814792076
2824520000000,0.498015538424,-0.208022550748,-1.54536674998,0.00129787470414,0.0192006187699,-0.00018545263164,0.999814791533
2824524000000,0.498015476662,-0.208022539902,-1.54536676299,0.00129790916982,0.0192005205815,-0.000185465106439,0.999814793371
2824529000000,0.498015515623,-0.208022543704,-1.545366751,0.00129787826763,0.0192005902042,-0.000185462873331,0.999814792075
2824534000000,0.498015562412,-0.20802255058,-1.54536675093,0.00129787465622,0.0192006188575,-0.000185452878486,0.999814791531
2824538000000,0.498015500652,-0.208022539733,-1.54536676393,0.00129790911565,0.0192005206794,-0.000185465354072,0.999814793369
2824542000000,0.498015539611,-0.208022543535,-1.54536675194,0.00129787821842,0.0192005902935,-0.000185463124556,0.999814792073
2824547000000,0.498015586404,-0.208022550411,-1.54536675187,0.00129787460856,0.0192006189453,-0.000185453125107,0.999814791529
2824551000000,0.498015524646,-0.208022539563,-1.54536676487,0.00129790906117,0.0192005207772,-0.000185465601564,0.999814793367
2824556000000,0.498015563604,-0.208022543366,-1.54536675288,0.00129787816947,0.0192005903836,-0.000185463375593,0.999814792071
2824560000000,0.4980156104,-0.208022550242,-1.54536675281,0.00129787456043,0.0192006190321,-0.000185453371805,0.999814791528
2824566000000,0.498015548643,-0.208022539393,-1.54536676581,0.00129790900774,0.0192005208748,-0.000185465848896,0.999814793366
2824569000000,0.498015587599,-0.208022543198,-1.54536675382,0.00129787812007,0.0192005904713,-0.000185463626579,0.99981479207
2824577000000,0.498015634399,-0.208022550073,-1.54536675375,0.00129787451379,0.0192006191212,-0.000185453617722,0.999814791526
2824581000000,0.498015572645,-0.208022539226,-1.54536676674,0.00129790895159,0.0192005209728,-0.000185466096114,0.999814793364
2824588000000,0.498015611602,-0.208022543029,-1.54536675476,0.00129787807221,0.0192005905655,-0.000185463877085,0.999814792068
2824592000000,0.498015658401,-0.208022549907,-1.54536675469,0.00129787446297,0.0192006192033,-0.000185453865412,0.999814791524
2824596000000,0.498015596648,-0.20802253905,-1.54536676769,0.00129790890401,0.0192005210689,-0.000185466343028,0.999814793362
2824600000000,0.498015635598,-0.20802254286,-1.5453667557,0.00129787801975,0.0192005906389,-0.000185464128518,0.999814792066
2824604000000,0.498015682413,-0.208022549729,-1.54536675564,0.00129787442565,0.0192006193072,-0.000185454106741,0.999814791522
2824609000000,0.498015620661,-0.208022538901,-1.54536676861,0.00129790882892,0.0192005211703,-0.000185466590416,0.99981479336
2824611000000,0.49801565963,-0.208022542692,-1.54536675665,0.00129787798311,0.0192005907813,-0.000185464376092,0.999814792064
2824621000000,0.498015706404,-0.208022549591,-1.54536675656,0.00129787434271,0.0192006193356,-0.000185454369704,0.999814791522
2824626000000,0.498015644659,-0.208022538657,-1.54536676959,0.00129790885037,0.0192005212532,-0.000185466835126,0.999814793358
2824631000000,0.498015683552,-0.208022542524,-1.54536675756,0.00129787788982,0.0192005906773,-0.000185464637667,0.999814792066
2824632000000,0.498015730492,-0.208022549313,-1.54536675757,0.00129787442788,0.0192006196431,-0.00018545455161,0.999814791516
2824639000000,0.498015668733,-0.208022538789,-1.54536677038,0.00129790851416,0.0192005213993,-0.000185467090305,0.999814793356
2824644000000,0.498015707916,-0.208022542378,-1.54536675865,0.00129787802157,0.0192005915155,-0.000185464846163,0.999814792049
2824648000000,0.498015754228,-0.208022549648,-1.54536675824,0.0012978738751,0.0192006188601,-0.000185455061081,0.999814791532
2824653000000,0.498015692525,-0.208022537671,-1.54536677195,0.00129790966338,0.0192005212589,-0.000185467292638,0.999814793357
2824656000000,0.498015730562,-0.208022542678,-1.54536675901,0.00129787732429,0.0192005885634,-0.000185465338179,0.999814792107
2824664000000,0.498015779683,-0.208022548747,-1.54536676042,0.00129787623038,0.0192006226949,-0.00018545433462,0.999814791455
2824668000000,0.49801571768,-0.208022545936,-1.54536677073,0.00129790610217,0.0192005216207,-0.000185467430989,0.999814793355
2824673000000,0.498015759909,-0.208022548538,-1.54536676217,0.001297880022,0.0192005988206,-0.000185465441338,0.999814791906
2824679000000,0.498015803433,-0.208022560789,-1.54536675921,0.00129787200651,0.0192006159584,-0.000185456860977,0.999814791589
2824683000000,0.49801574148,-0.208022545922,-1.54536677661,0.00129791427798,0.0192005199198,-0.000185468325036,0.999814793377
2824688000000,0.498015778358,-0.208022552213,-1.54536676114,0.0012978776332,0.019200584732,-0.000185466172995,0.99981479218
2824692000000,0.49801582879,-0.208022556621,-1.54536676359,0.00129787782252,0.0192006243527,-0.000185456299102,0.999814791421
2824697000000,0.498015767003,-0.208022553347,-1.54536677299,0.00129790592119,0.0192005232025,-0.000185469194196,0.999814793324
2824701000000,0.498015808393,-0.208022554038,-1.54536676415,0.00129787897002,0.0192005979208,-0.000185467315476,0.999814791925
2824705000000,0.4980158528,-0.20802256152,-1.54536676197,0.00129787200458,0.0192006186428,-0.000185457768289,0.999814791538
2824710000000,0.498015790821,-0.208022545328,-1.54536677751,0.00129791113038,0.0192005220527,-0.000185470024517,0.999814793339
2824714000000,0.498015828045,-0.208022549963,-1.54536676304,0.0012978765981,0.0192005876282,-0.000185467643577,0.999814792125
2824719000000,0.498015877747,-0.208022554582,-1.545366765,0.00129787638568,0.0192006249342,-0.000185457276234,0.999814791411
2824723000000,0.498015815808,-0.208022551386,-1.54536677471,0.00129790523492,0.0192005235532,-0.000185470218582,0.999814793318
2824727000000,0.498015857539,-0.208022552743,-1.545366766,0.00129787870569,0.0192005993057,-0.000185468084491,0.999814791898
2824732000000,0.498015901487,-0.208022561848,-1.54536676351,0.00129787131039,0.0192006184962,-0.00018545881981,0.999814791541
2824737000000,0.498015839506,-0.208022545785,-1.54536677981,0.00129791180123,0.0192005220677,-0.000185470748565,0.999814793338
2824740000000,0.498015876457,-0.208022551355,-1.54536676483,0.00129787635968,0.0192005869973,-0.000185468411343,0.999814792138
2824746000000,0.498015926774,-0.208022555958,-1.54536676721,0.00129787673044,0.0192006258431,-0.000185457979187,0.999814791393
2824749000000,0.498015864889,-0.20802255379,-1.54536677656,0.00129790493904,0.0192005240958,-0.000185470843254,0.999814793308
2824754000000,0.498015906638,-0.208022554756,-1.54536676803,0.00129787844081,0.0192005998053,-0.000185468821004,0.999814791889
2824758000000,0.498015950697,-0.208022563011,-1.5453667656,0.00129787108919,0.019200619308,-0.00018545937067,0.999814791526
2824763000000,0.498015888683,-0.208022546427,-1.54536678159,0.00129791101254,0.0192005228143,-0.000185471540457,0.999814793325
2824767000000,0.49801592571,-0.208022551426,-1.54536676679,0.00129787597461,0.0192005879487,-0.000185469111359,0.99981479212
2824769000000,0.498015975757,-0.208022555884,-1.54536676902,0.0012978761706,0.0192006262143,-0.000185458684994,0.999814791387
2824775000000,0.498015913822,-0.208022553447,-1.54536677845,0.00129790457418,0.0192005244596,-0.000185471629727,0.999814793301
2824778000000,0.498015955669,-0.208022554513,-1.54536676995,0.00129787822699,0.0192006004519,-0.000185469504342,0.999814791877
2824784000000,0.49801599955,-0.208022563284,-1.54536676739,0.00129787072747,0.0192006194232,-0.000185460177014,0.999814791524
2824789000000,0.498015937539,-0.208022546673,-1.54536678367,0.00129791117,0.0192005229993,-0.000185472224972,0.999814793321
2824793000000,0.498015974442,-0.208022552073,-1.54536676865,0.00129787576968,0.0192005878136,-0.000185469817904,0.999814792123
2824796000000,0.498016024815,-0.208022556525,-1.54536677109,0.00129787628482,0.0192006268383,-0.000185459312468,0.999814791374
2824800000000,0.498015962901,-0.208022554826,-1.54536678031,0.00129790434715,0.0192005248224,-0.00018547220858,0.999814793295
2824805000000,0.498016004815,-0.208022555688,-1.54536677196,0.00129787806827,0.0192006009395,-0.000185470137362,0.999814791867
2824815000000,0.498016048707,-0.2080225641,-1.54536676939,0.00129787052254,0.0192006199074,-0.000185460741673,0.999814791515
2824820000000,0.498015986677,-0.208022547147,-1.54536678557,0.00129791078948,0.0192005234838,-0.000185472898227,0.999814793312
2824825000000,0.498016023581,-0.208022552314,-1.54536677059,0.00129787550488,0.0192005883018,-0.000185470452198,0.999814792113
2824829000000,0.498016073914,-0.208022556664,-1.54536677301,0.00129787603179,0.0192006272681,-0.000185459930899,0.999814791366
2824833000000,0.498016011974,-0.208022555152,-1.5453667822,0.00129790407625,0.0192005251353,-0.0001854728575,0.999814793289
2824837000000,0.498016053985,-0.208022555997,-1.54536677393,0.00129787792453,0.0192006015094,-0.00018547075405,0.999814791857
2824842000000,0.498016097774,-0.208022564606,-1.54536677128,0.00129787025729,0.0192006201304,-0.000185461412645,0.999814791511
2824846000000,0.498016035736,-0.208022547512,-1.5453667876,0.00129791077545,0.0192005237563,-0.000185473534461,0.999814793307
2824850000000,0.498016072569,-0.208022552818,-1.5453667725,0.0012978753108,0.0192005883866,-0.000185471090717,0.999814792112
2824854000000,0.498016123078,-0.20802255712,-1.54536677503,0.00129787602501,0.0192006277842,-0.000185460527921,0.999814791356
2824859000000,0.498016061143,-0.208022556112,-1.54536678409,0.00129790386863,0.0192005254599,-0.000185473429807,0.999814793283
2824864000000,0.498016103222,-0.20802255682,-1.54536677592,0.00129787778357,0.0192006019797,-0.000185471347434,0.999814791848
2824868000000,0.498016146986,-0.208022565252,-1.54536677324,0.00129787005181,0.019200620506,-0.000185461984732,0.999814791504
2824873000000,0.498016084935,-0.208022547899,-1.54536678955,0.00129791054225,0.0192005241502,-0.000185474160621,0.999814793299
2824878000000,0.498016121739,-0.208022553125,-1.54536677443,0.00129787508486,0.0192005887005,-0.000185471700724,0.999814792106
2824882000000,0.498016172308,-0.208022557358,-1.54536677701,0.00129787589502,0.019200628253,-0.000185461103169,0.999814791347
2824887000000,0.498016110358,-0.208022556755,-1.54536678597,0.00129790364309,0.0192005257574,-0.0001854740052,0.999814793277
2824889000000,0.498016152529,-0.2080225574,-1.54536677791,0.00129787765555,0.0192006025064,-0.00018547192013,0.999814791838
2824896000000,0.49801619623,-0.208022565851,-1.54536677517,0.00129786982468,0.019200620803,-0.000185462575804,0.999814791498
2824901000000,0.498016134166,-0.208022548298,-1.54536679154,0.00129791042325,0.0192005244821,-0.000185474763745,0.999814793293
2824920000000,0.498016170923,-0.208022553543,-1.54536677636,0.00129787488221,0.0192005889043,-0.000185472297609,0.999814792102
2824926000000,0.498016221604,-0.208022557716,-1.54536677901,0.00129787582678,0.0192006287372,-0.000185461668301,0.999814791338
2824931000000,0.498016159649,-0.208022557559,-1.54536678787,0.00129790344023,0.0192005260648,-0.000185474554999,0.999814793272
2824932000000,0.498016201891,-0.208022558101,-1.54536677991,0.00129787751881,0.0192006029836,-0.000185472479015,0.999814791828
2824940000000,0.498016245553,-0.208022566454,-1.54536677713,0.001297869614,0.0192006211444,-0.000185463133809,0.999814791492
2824945000000,0.498016183477,-0.208022548673,-1.54536679351,0.00129791024065,0.0192005248475,-0.000185475357308,0.999814793286
2824950000000,0.498016220195,-0.208022553893,-1.54536677829,0.00129787466784,0.0192005891629,-0.000185472882846,0.999814792097
2824955000000,0.498016270969,-0.208022558012,-1.545366781,0.00129787573604,0.0192006292211,-0.000185462214903,0.999814791329
2824960000000,0.498016209006,-0.208022558332,-1.54536678977,0.00129790323837,0.0192005263605,-0.000185475086262,0.999814793266
2824964000000,0.498016251326,-0.20802255879,-1.54536678191,0.00129787738537,0.0192006034763,-0.000185473017206,0.999814791819
2824968000000,0.498016294945,-0.20802256707,-1.54536677908,0.00129786939981,0.0192006214827,-0.000185463675946,0.999814791485
2824972000000,0.498016232856,-0.208022549064,-1.54536679549,0.0012979100659,0.0192005252112,-0.000185475933466,0.999814793279
2824976000000,0.498016269535,-0.208022554263,-1.54536678022,0.00129787445453,0.0192005894185,-0.000185473451159,0.999814792093
2824981000000,0.498016320402,-0.208022558328,-1.54536678299,0.0012978756466,0.0192006297062,-0.000185462748075,0.99981479132
2824982000000,0.498016258433,-0.208022559098,-1.54536679167,0.00129790303843,0.0192005266655,-0.00018547560202,0.99981479326
2824990000000,0.498016300825,-0.208022559471,-1.5453667839,0.0012978772462,0.0192006039572,-0.000185473539661,0.99981479181
2824994000000,0.498016344404,-0.208022567668,-1.54536678104,0.00129786918655,0.0192006218242,-0.000185464201357,0.999814791479
2824997000000,0.498016282302,-0.208022549441,-1.54536679746,0.00129790988847,0.0192005255762,-0.000185476493461,0.999814793272
2825003000000,0.49801631894,-0.208022554629,-1.54536678215,0.00129787424004,0.019200589671,-0.000185474006121,0.999814792088
2825008000000,0.498016369909,-0.208022558648,-1.54536678499,0.00129787556456,0.0192006301993,-0.000185463263436,0.99981479131
2825013000000,0.498016307955,-0.208022559291,-1.54536679358,0.00129790274244,0.0192005271336,-0.000185476113191,0.999814793252
2825017000000,0.498016350386,-0.208022559629,-1.54536678587,0.00129787711542,0.0192006044555,-0.000185474061894,0.9998147918
2825021000000,0.49801639389,-0.208022568056,-1.54536678294,0.00129786897144,0.0192006219889,-0.000185464738754,0.999814791476
2825025000000,0.498016331784,-0.208022549746,-1.54536679952,0.00129790994895,0.0192005257905,-0.000185476979143,0.999814793268
2825029000000,0.498016368342,-0.208022555155,-1.54536678408,0.00129787409644,0.0192005896607,-0.000185474528187,0.999814792088
2825033000000,0.498016419474,-0.208022561343,-1.54536678703,0.00129787500304,0.0192006307758,-0.00018546670294,0.999814791299
2825035000000,0.49801635758,-0.208022561951,-1.54536679555,0.00129790158217,0.019200528013,-0.000185479383165,0.999814793236
2825039000000,0.498016400046,-0.208022561875,-1.54536678801,0.00129787634308,0.0192006051531,-0.00018547738188,0.999814791787
2825043000000,0.498016443477,-0.208022570375,-1.54536678495,0.0012978681744,0.0192006222024,-0.00018546799327,0.999814791472
2825048000000,0.49801638137,-0.208022551771,-1.54536680178,0.00129790972252,0.0192005261439,-0.000185480125193,0.999814793261
2825052000000,0.498016417745,-0.208022557687,-1.54536678605,0.00129787353807,0.0192005894311,-0.000185477798867,0.999814792093
2825057000000,0.498016469281,-0.208022570461,-1.54536678944,0.00129787593458,0.0192006317886,-0.000185473681198,0.999814791277
2825061000000,0.498016407643,-0.208022570229,-1.54536679801,0.00129790088367,0.0192005299672,-0.000185485448897,0.999814793198
2825064000000,0.498016449107,-0.208022567783,-1.54536679011,0.00129787470199,0.0192006040531,-0.000185483553856,0.99981479181
2825069000000,0.498016493214,-0.208022572303,-1.54536678766,0.00129786758289,0.019200624034,-0.000185473452061,0.999814791437
2825089000000,0.498016431127,-0.208022552541,-1.54536680319,0.00129790716832,0.0192005277292,-0.00018548601442,0.999814793233
2825092000000,0.498016467542,-0.20802255763,-1.54536678797,0.0012978722836,0.0192005909365,-0.000185483596751,0.999814792065
2825097000000,0.498016520848,-0.208022574621,-1.54536679166,0.00129787610276,0.0192006318191,-0.000185476695865,0.999814791276
2825102000000,0.498016459512,-0.208022574614,-1.54536680004,0.00129789966802,0.0192005302567,-0.000185487815138,0.999814793194
2825106000000,0.498016500857,-0.208022571325,-1.54536679241,0.00129787392319,0.0192006038901,-0.000185486362156,0.999814791813
2825110000000,0.498016544888,-0.208022575419,-1.54536678986,0.00129786679389,0.0192006236548,-0.000185476249012,0.999814791445
2825113000000,0.498016482752,-0.208022555041,-1.54536680556,0.00129790686313,0.0192005276541,-0.000185488934536,0.999814793234
2825116000000,0.498016518859,-0.208022560905,-1.54536678999,0.00129787164456,0.0192005900975,-0.000185486881006,0.999814792081
2825121000000,0.49801658742,-0.208022587301,-1.54536679492,0.00129787833981,0.0192006366309,-0.000185454891582,0.999814791184
2825125000000,0.498016528114,-0.208022586927,-1.54536680294,0.00129789898186,0.019200535378,-0.000185464879352,0.9998147931
2825130000000,0.498016568107,-0.208022580442,-1.54536679576,0.00129787383383,0.019200605541,-0.000185466993917,0.999814791785
2825134000000,0.498016611397,-0.208022582051,-1.54536679307,0.00129786671889,0.0192006250806,-0.000185458981837,0.999814791421
2825138000000,0.498016548382,-0.208022559854,-1.54536680868,0.00129790699227,0.0192005290617,-0.000185474141069,0.999814793209
2825142000000,0.498016583492,-0.208022567349,-1.54536679251,0.00129787143438,0.0192005894234,-0.000185474269617,0.999814792096
2825145000000,0.498016886385,-0.20802286601,-1.54536685978,0.00129943051663,0.019202818919,-0.000185488018023,0.999814747251
2825150000000,0.498016883052,-0.208022778012,-1.54536679398,0.00129796925397,0.0192007034964,-0.000185894879884,0.999814789701
2825155000000,0.498016704857,-0.208022622468,-1.54537210236,0.00128324379821,0.0192022943086,-0.000185338708703,0.999814778261
2825160000000,0.498016824183,-0.208022550888,-1.54536664738,0.00129721718933,0.0192008069037,-0.000185483585305,0.999814788767
2825164000000,0.498017041156,-0.208021351305,-1.54537116065,0.00131056911774,0.01920054667,-0.000186244580809,0.999814776211
2825169000000,0.498017408151,-0.208021703246,-1.54537228589,0.00128180285371,0.0192004345236,-0.000186362575675,0.999814815636
2825173000000,0.498017747219,-0.208020839665,-1.54536823087,0.00130106089319,0.0192007973248,-0.0001868892999,0.999814783695
2825175000000,0.498017964262,-0.208020763409,-1.54536637739,0.00129767708211,0.0192007497045,-0.000186827548606,0.999814789019
2825181000000,0.498018017026,-0.208020852143,-1.54536639148,0.00129762424947,0.0192007496561,-0.000186764463036,0.9998147891
2825188000000,0.49801806192,-0.208021069261,-1.54536640282,0.00129766452256,0.0192007480936,-0.000186726974163,0.999814789085
2825193000000,0.498018105055,-0.208021279736,-1.54536641236,0.00129766245417,0.0192007464729,-0.00018669870196,0.999814789124
2825197000000,0.498018148063,-0.208021454943,-1.54536642107,0.00129764967547,0.0192007448788,-0.000186674299522,0.999814789176
2825201000000,0.498018191283,-0.208021596405,-1.54536642898,0.00129763786297,0.019200743406,-0.000186652282295,0.999814789223
2825202000000,0.498018234742,-0.208021710404,-1.54536643621,0.0012976289226,0.0192007420716,-0.000186632093746,0.999814789264
2825207000000,0.498018278404,-0.208021802744,-1.54536644287,0.00129762256772,0.0192007408619,-0.000186613418407,0.999814789299
2825211000000,0.498018322227,-0.208021878106,-1.54536644907,0.00129761824367,0.0192007397578,-0.000186596014376,0.999814789329
2825216000000,0.498018366175,-0.208021940168,-1.5453664549,0.00129761546906,0.0192007387418,-0.000186579691078,0.999814789355
2825221000000,0.498018410221,-0.20802199181,-1.54536646044,0.00129761386777,0.0192007377996,-0.000186564290788,0.999814789378
2825225000000,0.498018454338,-0.208022035287,-1.54536646572,0.00129761315269,0.0192007369177,-0.000186549685375,0.999814789399
2825230000000,0.49801849851,-0.208022072363,-1.54536647081,0.00129761310325,0.0192007360862,-0.000186535768097,0.999814789418
2825245000000,0.498018542722,-0.208022104418,-1.54536647574,0.00129761355227,0.0192007352961,-0.000186522450055,0.999814789435
2825250000000,0.498018586962,-0.208022132532,-1.54536648053,0.00129761437231,0.0192007345409,-0.00018650965787,0.999814789451
2825255000000,0.498018631222,-0.208022157547,-1.54536648522,0.00129761546675,0.0192007338144,-0.000186497330627,0.999814789465
2825256000000,0.498018675494,-0.208022180124,-1.54536648981,0.00129761676271,0.0192007331116,-0.000186485418154,0.999814789479
2825261000000,0.498018719773,-0.208022200778,-1.54536649433,0.00129761820527,0.0192007324283,-0.000186473878012,0.999814789493
2825265000000,0.498018764054,-0.208022219913,-1.54536649879,0.00129761975315,0.0192007317614,-0.000186462673922,0.999814789506
2825269000000,0.498018808335,-0.208022237843,-1.54536650319,0.00129762137516,0.0192007311079,-0.000186451775963,0.999814789518
2825274000000,0.498018852612,-0.208022254817,-1.54536650755,0.00129762304834,0.0192007304656,-0.000186441157891,0.99981478953
2825278000000,0.498018896885,-0.208022271026,-1.54536651187,0.00129762475533,0.0192007298328,-0.000186430797964,0.999814789542
2825282000000,0.498018941151,-0.208022286624,-1.54536651615,0.00129762648347,0.0192007292082,-0.000186420677826,0.999814789554
2825287000000,0.498018985411,-0.208022301729,-1.54536652041,0.00129762822326,0.0192007285904,-0.000186410780866,0.999814789565
2825291000000,0.498019029664,-0.208022316434,-1.54536652464,0.00129762996726,0.0192007279784,-0.00018640109363,0.999814789577
2825295000000,0.498019073907,-0.208022330811,-1.54536652884,0.00129763171025,0.019200727371,-0.000186391604789,0.999814789588
2825298000000,0.498019118142,-0.208022344917,-1.54536653302,0.00129763344887,0.0192007267677,-0.000186382303182,0.999814789599
2825303000000,0.498019162368,-0.208022358795,-1.54536653718,0.0012976351805,0.0192007261678,-0.000186373179804,0.99981478961
2825307000000,0.498019206584,-0.208022372479,-1.54536654132,0.00129763690327,0.019200725571,-0.000186364226231,0.999814789621
2825310000000,0.498019250792,-0.208022385997,-1.54536654544,0.00129763861605,0.0192007249769,-0.000186355434841,0.999814789632
2825315000000,0.498019294991,-0.20802239937,-1.54536654955,0.00129764031823,0.0192007243855,-0.000186346798141,0.999814789642
2825320000000,0.498019339183,-0.208022412615,-1.54536655364,0.00129764200921,0.0192007237969,-0.000186338309943,0.999814789653
2825324000000,0.498019383367,-0.208022425744,-1.54536655772,0.00129764368874,0.0192007232109,-0.00018632996436,0.999814789664
2825329000000,0.498019427545,-0.208022438768,-1.54536656178,0.00129764535665,0.0192007226272,-0.000186321756349,0.999814789674
2825333000000,0.498019471716,-0.208022451695,-1.54536656582,0.00129764701297,0.0192007220459,-0.000186313680481,0.999814789685
2825338000000,0.498019515881,-0.208022464532,-1.54536656985,0.00129764865781,0.0192007214668,-0.000186305731879,0.999814789695
2825343000000,0.49801956004,-0.208022477285,-1.54536657387,0.00129765029095,0.0192007208893,-0.000186297907049,0.999814789706
2825347000000,0.498019604192,-0.208022489957,-1.54536657787,0.00129765191241,0.0192007203137,-0.000186290201823,0.999814789716
2825352000000,0.498019648339,-0.208022502551,-1.54536658186,0.00129765352258,0.0192007197399,-0.00018628261176,0.999814789726
2825356000000,0.49801969248,-0.208022515069,-1.54536658584,0.00129765512162,0.0192007191679,-0.000186275133762,0.999814789737
2825361000000,0.498019736617,-0.208022527513,-1.5453665898,0.00129765670974,0.0192007185978,-0.000186267764374,0.999814789747
2825365000000,0.49801978075,-0.208022539885,-1.54536659375,0.00129765828724,0.0192007180302,-0.000186260500532,0.999814789757
2825370000000,0.49801982488,-0.208022552187,-1.54536659769,0.0012976598541,0.0192007174649,-0.000186253338745,0.999814789767
2825374000000,0.498019869007,-0.208022564419,-1.54536660161,0.00129766141052,0.0192007169019,-0.000186246275183,0.999814789777
2825377000000,0.498019913132,-0.208022576584,-1.54536660552,0.00129766295665,0.0192007163413,-0.000186239306695,0.999814789787
2825381000000,0.498019957255,-0.208022588682,-1.54536660942,0.00129766449255,0.019200715783,-0.000186232431301,0.999814789797
2825386000000,0.498020001375,-0.208022600715,-1.54536661331,0.00129766601841,0.0192007152263,-0.000186225647478,0.999814789807
2825391000000,0.498020045493,-0.208022612683,-1.54536661719,0.00129766753417,0.0192007146714,-0.000186218952403,0.999814789817
2825396000000,0.498020089609,-0.208022624588,-1.54536662105,0.00129766904025,0.0192007141186,-0.000186212341642,0.999814789827
2825401000000,0.498020133725,-0.208022636432,-1.5453666249,0.00129767053605,0.0192007135681,-0.000186205812983,0.999814789837
2825405000000,0.498020177839,-0.208022648212,-1.54536662874,0.00129767202168,0.0192007130196,-0.000186199365499,0.999814789847
2825409000000,0.498020221953,-0.20802265993,-1.54536663257,0.00129767349762,0.0192007124733,-0.000186192996915,0.999814789857
2825413000000,0.498020266066,-0.208022671586,-1.54536663639,0.00129767496392,0.0192007119291,-0.000186186704726,0.999814789866
2825417000000,0.498020310179,-0.208022683179,-1.54536664019,0.00129767642077,0.0192007113872,-0.00018618048579,0.999814789876
2825421000000,0.498020354293,-0.208022694711,-1.54536664398,0.00129767786826,0.0192007108476,-0.000186174338148,0.999814789886
2825431000000,0.498020398409,-0.208022706181,-1.54536664776,0.00129767930662,0.0192007103104,-0.000186168260155,0.999814789895
2825434000000,0.498020442525,-0.208022717588,-1.54536665153,0.00129768073592,0.0192007097754,-0.000186162250294,0.999814789905
2825437000000,0.498020486643,-0.208022728935,-1.54536665529,0.00129768215638,0.0192007092432,-0.00018615630647,0.999814789914
2825441000000,0.498020530764,-0.208022740221,-1.54536665904,0.00129768356815,0.0192007087141,-0.000186150425808,0.999814789924
2825441000000,0.498020574888,-0.208022751448,-1.54536666278,0.00129768497102,0.0192007081876,-0.000186144607644,0.999814789933
2825449000000,0.498020619015,-0.208022762614,-1.5453666665,0.00129768636514,0.0192007076635,-0.00018613885027,0.999814789942
2825454000000,0.498020663146,-0.208022773722,-1.54536667021,0.00129768775076,0.0192007071421,-0.000186133151461,0.999814789952
2825457000000,0.498020707279,-0.208022784772,-1.54536667392,0.00129768912773,0.0192007066231,-0.000186127509425,0.999814789961
2825461000000,0.498020751416,-0.208022795764,-1.54536667761,0.00129769049605,0.0192007061064,-0.000186121923573,0.99981478997
2825463000000,0.498020795557,-0.208022806698,-1.54536668129,0.00129769185591,0.0192007055924,-0.000186116392029,0.999814789979
2825471000000,0.498020839703,-0.208022817574,-1.54536668496,0.0012976932072,0.0192007050811,-0.000186110913391,0.999814789988
2825475000000,0.498020883853,-0.208022828393,-1.54536668862,0.00129769455007,0.0192007045725,-0.00018610548634,0.999814789997
2825480000000,0.498020928009,-0.208022839156,-1.54536669227,0.00129769588494,0.0192007040667,-0.000186100108355,0.999814790006
2825484000000,0.498020972169,-0.208022849863,-1.54536669591,0.0012976972116,0.0192007035632,-0.00018609477988,0.999814790015
2825489000000,0.498021016333,-0.208022860515,-1.54536669954,0.00129769852983,0.0192007030617,-0.000186089499896,0.999814790024
2825493000000,0.498021060503,-0.208022871111,-1.54536670316,0.00129769983981,0.0192007025629,-0.000186084266323,0.999814790033
2825497000000,0.498021104679,-0.208022881652,-1.54536670676,0.00129770114157,0.0192007020668,-0.000186079077889,0.999814790042
2825499000000,0.498021148861,-0.208022892136,-1.54536671036,0.00129770243544,0.0192007015734,-0.000186073933456,0.999814790051
2825507000000,0.498021193049,-0.208022902566,-1.54536671395,0.00129770372184,0.0192007010828,-0.000186068831263,0.999814790059
2825512000000,0.498021237245,-0.208022912942,-1.54536671753,0.00129770500026,0.0192007005948,-0.000186063770949,0.999814790068
2825517000000,0.498021281447,-0.208022923264,-1.54536672109,0.00129770627076,0.0192007001094,-0.000186058751618,0.999814790077
2825520000000,0.498021325656,-0.208022933533,-1.54536672465,0.00129770753363,0.0192006996267,-0.000186053771421,0.999814790085
2825522000000,0.498021369873,-0.208022943749,-1.5453667282,0.00129770878864,0.019200699147,-0.000186048829548,0.999814790094
2825527000000,0.498021414098,-0.208022953912,-1.54536673174,0.00129771003597,0.0192006986702,-0.000186043924794,0.999814790102
2825531000000,0.498021458332,-0.208022964023,-1.54536673526,0.00129771127572,0.0192006981963,-0.000186039056886,0.99981479011
2825536000000,0.498021502573,-0.20802297408,-1.54536673878,0.00129771250798,0.0192006977249,-0.000186034224982,0.999814790119
2825541000000,0.498021546824,-0.208022984086,-1.54536674229,0.00129771373279,0.0192006972563,-0.000186029427661,0.999814790127
2825550000000,0.498021591084,-0.208022994038,-1.54536674579,0.00129771495014,0.0192006967907,-0.000186024664105,0.999814790135
2825553000000,0.498021635353,-0.208023003938,-1.54536674928,0.0012977161602,0.019200696328,-0.000186019933891,0.999814790144
2825558000000,0.498021679631,-0.208023013787,-1.54536675276,0.00129771736347,0.0192006958682,-0.000186015235692,0.999814790152
2825562000000,0.49802172392,-0.208023023586,-1.54536675623,0.00129771855963,0.0192006954109,-0.000186010568695,0.99981479016
2825566000000,0.498021768218,-0.208023033335,-1.54536675969,0.00129771974837,0.0192006949564,-0.000186005932038,0.999814790168
2825570000000,0.498021812527,-0.208023043033,-1.54536676315,0.00129772092986,0.019200694505,-0.000186001324761,0.999814790176
2825573000000,0.498021856847,-0.208023052681,-1.54536676659,0.00129772210422,0.0192006940566,-0.000185996746385,0.999814790184
2825579000000,0.498021901179,-0.20802306228,-1.54536677002,0.00129772327168,0.0192006936115,-0.000185992195236,0.999814790192
2825584000000,0.498021945522,-0.208023071831,-1.54536677345,0.00129772443222,0.0192006931691,-0.00018598767175,0.9998147902
2825588000000,0.498021989876,-0.208023081332,-1.54536677687,0.0012977255855,0.0192006927291,-0.000185983176183,0.999814790207
2825592000000,0.498022034242,-0.208023090785,-1.54536678027,0.00129772673198,0.0192006922921,-0.000185978707216,0.999814790215
2825595000000,0.49802207862,-0.208023100189,-1.54536678367,0.00129772787156,0.019200691858,-0.000185974263695,0.999814790223
2825601000000,0.498022123011,-0.208023109545,-1.54536678706,0.00129772900438,0.019200691427,-0.000185969844658,0.99981479023
2825603000000,0.498022167414,-0.208023118853,-1.54536679044,0.00129773013047,0.0192006909986,-0.00018596545073,0.999814790238
2825609000000,0.49802221183,-0.208023128115,-1.54536679382,0.00129773125002,0.019200690573,-0.000185961080834,0.999814790245
2825613000000,0.498022256259,-0.208023137331,-1.54536679718,0.00129773236284,0.0192006901504,-0.000185956733314,0.999814790253
2825614000000,0.498022300702,-0.208023146501,-1.54536680053,0.00129773346865,0.0192006897307,-0.000185952407886,0.99981479026
2825622000000,0.498022345158,-0.208023155626,-1.54536680388,0.00129773456769,0.019200689314,-0.000185948104717,0.999814790268
2825626000000,0.498022389629,-0.208023164704,-1.54536680722,0.00129773566001,0.0192006889003,-0.000185943822858,0.999814790275
2825631000000,0.498022434115,-0.208023173736,-1.54536681055,0.00129773674574,0.0192006884897,-0.000185939561846,0.999814790282
2825635000000,0.498022478617,-0.208023182721,-1.54536681387,0.00129773782508,0.0192006880825,-0.000185935320692,0.99981479029
2825640000000,0.498022523133,-0.20802319166,-1.54536681719,0.00129773889793,0.0192006876783,-0.000185931100155,0.999814790297
2825644000000,0.498022567667,-0.208023200553,-1.54536682049,0.00129773996483,0.0192006872776,-0.000185926897556,0.999814790304
2825647000000,0.498022612217,-0.208023209401,-1.54536682379,0.00129774102542,0.0192006868801,-0.000185922713254,0.999814790311
2825652000000,0.498022656784,-0.208023218204,-1.54536682708,0.00129774207996,0.0192006864859,-0.000185918547202,0.999814790318
2825655000000,0.498022701368,-0.208023226964,-1.54536683036,0.00129774312837,0.0192006860946,-0.000185914398727,0.999814790325
2825661000000,0.49802274597,-0.208023235681,-1.54536683364,0.00129774417037,0.0192006857066,-0.000185910266696,0.999814790332
2825665000000,0.49802279059,-0.208023244354,-1.5453668369,0.00129774520604,0.0192006853221,-0.000185906150412,0.999814790338
2825670000000,0.498022835227,-0.208023252983,-1.54536684016,0.00129774623543,0.0192006849405,-0.000185902051471,0.999814790345
2825674000000,0.498022879884,-0.20802326157,-1.54536684342,0.00129774725898,0.0192006845623,-0.000185897967733,0.999814790352
2825678000000,0.49802292456,-0.208023270113,-1.54536684666,0.00129774827638,0.0192006841873,-0.000185893899241,0.999814790358
2825682000000,0.498022969256,-0.208023278615,-1.54536684989,0.00129774928787,0.0192006838157,-0.000185889845555,0.999814790365
2825686000000,0.498023013971,-0.208023287076,-1.54536685312,0.00129775029316,0.0192006834474,-0.000185885806906,0.999814790372
2825691000000,0.498023058708,-0.208023295495,-1.54536685634,0.00129775129246,0.0192006830827,-0.000185881781928,0.999814790378
2825695000000,0.498023103466,-0.208023303873,-1.54536685956,0.00129775228552,0.0192006827215,-0.000185877770798,0.999814790384
2825700000000,0.498023148245,-0.208023312211,-1.54536686277,0.00129775327276,0.0192006823638,-0.000185873773672,0.999814790391
2825705000000,0.498023193047,-0.208023320508,-1.54536686597,0.00129775425404,0.0192006820096,-0.000185869788646,0.999814790397
2825709000000,0.498023237873,-0.208023328764,-1.54536686916,0.00129775522932,0.0192006816595,-0.000185865814893,0.999814790403
2825713000000,0.498023282722,-0.20802333698,-1.54536687234,0.00129775619867,0.0192006813131,-0.000185861853692,0.999814790409
2825717000000,0.498023327596,-0.208023345156,-1.54536687552,0.00129775716235,0.0192006809707,-0.000185857904028,0.999814790415
2825722000000,0.498023372496,-0.208023353292,-1.54536687869,0.00129775812028,0.0192006806327,-0.000185853965052,0.999814790421
2825726000000,0.498023417423,-0.208023361388,-1.54536688186,0.00129775907236,0.0192006802993,-0.000185850036596,0.999814790427
2825730000000,0.498023462377,-0.208023369443,-1.54536688502,0.00129776001888,0.0192006799706,-0.00018584611905,0.999814790433
2825734000000,0.498023507361,-0.208023377459,-1.54536688817,0.00129776096,0.0192006796468,-0.000185842211604,0.999814790439
2825739000000,0.498023552375,-0.208023385437,-1.54536689131,0.0012977618957,0.019200679328,-0.000185838313742,0.999814790444
2825743000000,0.49802359742,-0.208023393377,-1.54536689445,0.00129776282583,0.0192006790144,-0.000185834425702,0.99981479045
2825748000000,0.498023642497,-0.20802340128,-1.54536689759,0.00129776375026,0.019200678706,-0.000185830546073,0.999814790455
2825752000000,0.498023687608,-0.208023409145,-1.54536690071,0.00129776466892,0.0192006784031,-0.000185826674754,0.999814790461
2825757000000,0.498023732751,-0.208023416972,-1.54536690383,0.00129776558181,0.0192006781051,-0.000185822813292,0.999814790466
2825761000000,0.49802377793,-0.208023424762,-1.54536690695,0.00129776648948,0.0192006778125,-0.000185818959577,0.999814790471
2825766000000,0.498023823145,-0.208023432514,-1.54536691005,0.00129776739159,0.0192006775252,-0.000185815113748,0.999814790476
2825767000000,0.498023868396,-0.208023440229,-1.54536691316,0.00129776828838,0.0192006772434,-0.000185811275625,0.999814790481
2825767000000,0.498023913686,-0.208023447906,-1.54536691625,0.00129776917982,0.019200676967,-0.000185807444904,0.999814790486
2825779000000,0.498023959014,-0.208023455547,-1.54536691934,0.0012977700661,0.0192006766961,-0.000185803621131,0.999814790491
2825783000000,0.498024004381,-0.208023463153,-1.54536692243,0.0012977709471,0.0192006764305,-0.00018579980515,0.999814790496
2825788000000,0.49802404979,-0.208023470724,-1.54536692551,0.00129777182281,0.0192006761706,-0.0001857959958,0.9998147905
2825792000000,0.498024095241,-0.20802347826,-1.54536692858,0.00129777269307,0.0192006759168,-0.000185792192985,0.999814790505
2825797000000,0.498024140736,-0.20802348576,-1.54536693165,0.00129777355778,0.0192006756689,-0.000185788398058,0.999814790509
2825801000000,0.498024186276,-0.208023493226,-1.54536693471,0.0012977744173,0.0192006754273,-0.000185784609471,0.999814790513
2825806000000,0.498024231862,-0.208023500656,-1.54536693777,0.00129777527137,0.0192006751919,-0.000185780827492,0.999814790517
2825811000000,0.498024277496,-0.208023508052,-1.54536694082,0.00129777612035,0.0192006749631,-0.000185777052015,0.999814790521
2825815000000,0.498024323178,-0.208023515412,-1.54536694387,0.00129777696442,0.0192006747405,-0.000185773282854,0.999814790525
2825820000000,0.498024368911,-0.20802352274,-1.54536694691,0.00129777780339,0.0192006745242,-0.000185769520044,0.999814790529
2825824000000,0.498024414694,-0.208023530034,-1.54536694995,0.00129777863709,0.0192006743144,-0.000185765763339,0.999814790533
2825829000000,0.49802446053,-0.208023537294,-1.54536695298,0.00129777946558,0.0192006741112,-0.000185762012533,0.999814790536
2825833000000,0.49802450642,-0.20802354452,-1.54536695601,0.00129778028898,0.0192006739147,-0.000185758267722,0.999814790539
2825837000000,0.498024552366,-0.208023551712,-1.54536695903,0.00129778110736,0.0192006737249,-0.000185754529206,0.999814790543
2825842000000,0.498024598368,-0.20802355887,-1.54536696205,0.00129778192069,0.0192006735421,-0.000185750796842,0.999814790546
2825846000000,0.49802464443,-0.208023565994,-1.54536696507,0.0012977827292,0.0192006733666,-0.000185747070201,0.999814790549
2825851000000,0.498024690551,-0.208023573084,-1.54536696808,0.00129778353317,0.0192006731984,-0.000185743349095,0.999814790552
2825854000000,0.498024736734,-0.208023580142,-1.54536697108,0.00129778433239,0.0192006730371,-0.000185739634405,0.999814790555
2825857000000,0.49802478298,-0.208023587167,-1.54536697408,0.00129778512669,0.0192006728832,-0.000185735925687,0.999814790557
2825861000000,0.49802482929,-0.20802359416,-1.54536697708,0.0012977859161,0.0192006727367,-0.000185732223052,0.99981479056
2825866000000,0.498024875666,-0.208023601119,-1.54536698008,0.00129778670065,0.0192006725977,-0.00018572852658,0.999814790562
2825870000000,0.498024922111,-0.208023608046,-1.54536698307,0.00129778748059,0.0192006724664,-0.000185724836657,0.999814790564
2825873000000,0.498024968624,-0.20802361494,-1.54536698605,0.0012977882557,0.0192006723428,-0.000185721153791,0.999814790566
2825873000000,0.498025015209,-0.208023621801,-1.54536698904,0.00129778902619,0.019200672227,-0.000185717478099,0.999814790568
2825878000000,0.498025061867,-0.208023628631,-1.54536699202,0.00129778979254,0.0192006721194,-0.000185713808461,0.99981479057
2825883000000,0.498025108599,-0.208023635429,-1.54536699499,0.00129779055404,0.0192006720198,-0.000185710146762,0.999814790571
2825888000000,0.498025155408,-0.208023642196,-1.54536699797,0.00129779131068,0.0192006719284,-0.000185706493603,0.999814790573
2825897000000,0.498025202295,-0.208023648932,-1.54536700094,0.00129779206268,0.0192006718455,-0.000185702848562,0.999814790574
2825904000000,0.498025249263,-0.208023655634,-1.54536700391,0.00129779280995,0.0192006717717,-0.000185699212176,0.999814790575
2825906000000,0.498025296314,-0.208023662303,-1.54536700687,0.00129779355288,0.0192006717068,-0.000185695585341,0.999814790576
2825914000000,0.49802534345,-0.20802366894,-1.54536700983,0.00129779429151,0.0192006716511,-0.000185691969003,0.999814790577
2825918000000,0.498025390674,-0.208023675545,-1.54536701279,0.00129779502597,0.019200671605,-0.000185688362989,0.999814790578
2825923000000,0.498025437987,-0.208023682117,-1.54536701575,0.00129779575611,0.0192006715689,-0.000185684768026,0.999814790578
2825926000000,0.498025485394,-0.208023688657,-1.5453670187,0.0012977964817,0.0192006715432,-0.000185681186209,0.999814790578
2825933000000,0.498025532895,-0.208023695163,-1.54536702165,0.00129779720309,0.0192006715282,-0.000185677618578,0.999814790578
2825937000000,0.498025580496,-0.208023701635,-1.5453670246,0.00129779792028,0.0192006715245,-0.000185674066114,0.999814790578
2825941000000,0.498025628198,-0.208023708074,-1.54536702755,0.00129779863347,0.0192006715326,-0.000185670529681,0.999814790578
2825945000000,0.498025676003,-0.208023714479,-1.5453670305,0.00129779934276,0.0192006715525,-0.000185667011456,0.999814790577
2825948000000,0.498025723917,-0.208023720849,-1.54536703344,0.00129780004783,0.0192006715848,-0.000185663513758,0.999814790576
2825955000000,0.498025771941,-0.208023727185,-1.54536703639,0.00129780074895,0.01920067163,-0.000185660038178,0.999814790575
2825959000000,0.49802582008,-0.208023733485,-1.54536703933,0.00129780144599,0.0192006716891,-0.000185656586552,0.999814790574
2825963000000,0.498025868338,-0.208023739747,-1.54536704227,0.00129780213928,0.0192006717627,-0.00018565316273,0.999814790572
2825968000000,0.498025916719,-0.208023745972,-1.54536704521,0.00129780282899,0.0192006718513,-0.000185649769029,0.99981479057
2825970000000,0.498025965226,-0.208023752158,-1.54536704815,0.00129780351518,0.0192006719557,-0.000185646409135,0.999814790568
2825977000000,0.498026013866,-0.208023758306,-1.54536705109,0.00129780419774,0.0192006720766,-0.000185643086818,0.999814790565
2825980000000,0.498026062641,-0.208023764413,-1.54536705403,0.00129780487661,0.0192006722147,-0.000185639808179,0.999814790562
2825984000000,0.498026111558,-0.208023770478,-1.54536705697,0.00129780555211,0.0192006723714,-0.000185636577223,0.999814790559
2825988000000,0.498026160623,-0.2080237765,-1.54536705991,0.00129780622422,0.0192006725476,-0.000185633400464,0.999814790555
2825992000000,0.49802620984,-0.208023782477,-1.54536706285,0.00129780689336,0.0192006727445,-0.000185630284003,0.999814790551
2825996000000,0.498026259218,-0.208023788409,-1.54536706579,0.00129780755912,0.0192006729631,-0.00018562723698,0.999814790547
2826000000000,0.498026308761,-0.208023794292,-1.54536706873,0.00129780822164,0.0192006732044,-0.000185624268173,0.999814790542
2826005000000,0.498026358478,-0.208023800125,-1.54536707167,0.00129780888089,0.0192006734701,-0.000185621388252,0.999814790536
2826009000000,0.498026408376,-0.208023805902,-1.54536707462,0.001297809537,0.0192006737611,-0.000185618610307,0.99981479053
2826013000000,0.498026458465,-0.208023811623,-1.54536707756,0.00129781019043,0.0192006740788,-0.000185615947444,0.999814790524
2826014000000,0.498026508754,-0.208023817284,-1.54536708051,0.00129781084102,0.0192006744245,-0.000185613415978,0.999814790517
2826022000000,0.498026559253,-0.208023822881,-1.54536708346,0.00129781148881,0.0192006747992,-0.00018561103598,0.999814790509
2826027000000,0.498026609974,-0.208023828411,-1.54536708642,0.00129781213383,0.0192006752032,-0.000185608829399,0.999814790501
2826031000000,0.498026660931,-0.208023833868,-1.54536708938,0.0012978127761,0.019200675636,-0.000185606822027,0.999814790492
2826036000000,0.498026712137,-0.208023839249,-1.54536709234,0.00129781341559,0.0192006760959,-0.000185605043806,0.999814790483
2826040000000,0.498026763608,-0.208023844548,-1.5453670953,0.00129781405194,0.0192006765781,-0.000185603532609,0.999814790473
2826043000000,0.498026815363,-0.208023849757,-1.54536709827,0.00129781468512,0.0192006770747,-0.000185602328073,0.999814790463
2826043000000,0.498026867434,-0.208023854868,-1.54536710125,0.00129781531482,0.0192006775684,-0.000185601502221,0.999814790453
2826050000000,0.498026919861,-0.208023859872,-1.54536710423,0.00129781594126,0.0192006780334,-0.000185601135582,0.999814790443
2826054000000,0.498026972671,-0.20802386476,-1.54536710723,0.00129781656612,0.0192006784334,-0.000185601285255,0.999814790435
2826058000000,0.498027025879,-0.208023869526,-1.54536711024,0.00129781719234,0.0192006787496,-0.000185601963846,0.999814790428
2826063000000,0.498027079473,-0.208023874162,-1.54536711326,0.00129781782093,0.019200679005,-0.000185603130897,0.999814790422
2826067000000,0.498027133442,-0.208023878665,-1.54536711628,0.00129781845332,0.0192006792139,-0.000185604756681,0.999814790417
2826072000000,0.498027187775,-0.20802388303,-1.54536711932,0.00129781909046,0.019200679388,-0.000185606818665,0.999814790412
2826076000000,0.498027242614,-0.208023886788,-1.54536712242,0.00129781972697,0.0192006793483,-0.000185610481458,0.999814790411
2826080000000,0.498027297992,-0.208023889594,-1.54536712559,0.00129782035877,0.019200679084,-0.000185616051794,0.999814790415
2826084000000,0.498027353776,-0.208023891566,-1.54536712877,0.0012978211695,0.0192006787882,-0.000185622808632,0.999814790418
2826089000000,0.498027409914,-0.208023892987,-1.54536713196,0.00129782217013,0.0192006784901,-0.000185630396607,0.999814790421
2826094000000,0.498027466387,-0.208023894125,-1.54536713516,0.00129782330349,0.0192006781995,-0.000185638612341,0.999814790424
2826094000000,0.498027523198,-0.208023895163,-1.54536713836,0.00129782450473,0.0192006779212,-0.000185647350444,0.999814790426
2826100000000,0.498027580358,-0.208023896194,-1.54536714157,0.00129782572519,0.0192006776574,-0.000185656569649,0.999814790427
2826105000000,0.498027637877,-0.208023897242,-1.54536714479,0.00129782693679,0.0192006774085,-0.000185666264065,0.999814790429
2826109000000,0.498027695764,-0.2080238983,-1.54536714801,0.00129782812849,0.019200677174,-0.000185676434113,0.99981479043
2826113000000,0.498027754024,-0.208023899349,-1.54536715124,0.00129782929939,0.0192006769537,-0.00018568707555,0.999814790431
2826117000000,0.498027812659,-0.208023900377,-1.54536715449,0.00129783045223,0.0192006767473,-0.000185698173104,0.999814790431
2826122000000,0.498027871669,-0.208023901376,-1.54536715774,0.00129783159032,0.0192006765553,-0.000185709702218,0.999814790431
2826125000000,0.498027931057,-0.208023902348,-1.545367161,0.00129783271529,0.0192006763784,-0.00018572163622,0.999814790431
2826130000000,0.498027990822,-0.208023903297,-1.54536716428,0.00129783382713,0.0192006762171,-0.000185733949272,0.99981479043
2826135000000,0.498028050969,-0.208023904229,-1.54536716756,0.00129783492536,0.0192006760725,-0.000185746613569,0.999814790429
2826139000000,0.498028111501,-0.208023905146,-1.54536717086,0.001297836009,0.0192006759452,-0.000185759609332,0.999814790428
2826143000000,0.49802817242,-0.208023906049,-1.54536717416,0.00129783707743,0.0192006758353,-0.000185772918775,0.999814790426
2826148000000,0.498028233732,-0.208023906939,-1.54536717748,0.00129783813095,0.0192006757442,-0.000185786519944,0.999814790424
2826152000000,0.49802829544,-0.208023907814,-1.54536718081,0.00129783916996,0.0192006756722,-0.000185800394938,0.999814790421
2826155000000,0.49802835755,-0.208023908674,-1.54536718416,0.00129784019512,0.0192006756201,-0.000185814523519,0.999814790418
2826159000000,0.498028420068,-0.208023909521,-1.54536718752,0.00129784120711,0.0192006755889,-0.00018582888656,0.999814790415
2826174000000,0.498028482998,-0.208023910352,-1.54536719089,0.00129784220642,0.019200675579,-0.000185843468205,0.999814790411
2826178000000,0.498028546346,-0.208023911169,-1.54536719429,0.00129784319399,0.0192006755911,-0.000185858248039,0.999814790407
2826183000000,0.498028610045,-0.208023912172,-1.54536719769,0.00129784420311,0.0192006755865,-0.000185872774366,0.999814790403
2826188000000,0.498028673942,-0.208023913649,-1.54536720106,0.00129784528697,0.0192006757961,-0.00018588626584,0.999814790395
2826192000000,0.498028738019,-0.208023915886,-1.54536720439,0.00129784636402,0.019200676208,-0.000185898442196,0.999814790384
2826197000000,0.49802880229,-0.208023918968,-1.54536720771,0.00129784735092,0.0192006767799,-0.000185909312924,0.999814790369
2826202000000,0.498028866757,-0.208023922767,-1.54536721101,0.00129784821944,0.0192006775171,-0.000185919024022,0.999814790352
2826207000000,0.498028931413,-0.208023927115,-1.54536721428,0.00129784898184,0.0192006783916,-0.000185927705946,0.999814790333
2826211000000,0.498028996247,-0.208023931862,-1.54536721755,0.00129784966219,0.0192006793725,-0.000185935469823,0.999814790312
2826216000000,0.498029061254,-0.208023936894,-1.5453672208,0.00129785028465,0.0192006804344,-0.000185942403639,0.999814790289
2826219000000,0.49802912643,-0.20802394213,-1.54536722405,0.00129785086877,0.0192006815597,-0.000185948575077,0.999814790266
2826223000000,0.498029191773,-0.208023947517,-1.5453672273,0.00129785142929,0.0192006827371,-0.000185954039373,0.999814790241
2826228000000,0.498029257289,-0.208023953019,-1.54536723056,0.00129785197655,0.019200683961,-0.000185958837349,0.999814790216
2826233000000,0.49802932298,-0.208023958613,-1.54536723383,0.00129785251798,0.019200685229,-0.000185963002785,0.99981479019
2826237000000,0.498029388852,-0.208023964287,-1.54536723711,0.00129785305885,0.0192006865405,-0.000185966561352,0.999814790164
2826237000000,0.498029454912,-0.20802397003,-1.54536724041,0.0012978536033,0.0192006878967,-0.000185969535214,0.999814790136
2826246000000,0.498029521163,-0.20802397584,-1.54536724372,0.00129785415453,0.0192006892989,-0.000185971943958,0.999814790108
2826251000000,0.498029587614,-0.208023981714,-1.54536724707,0.0012978547154,0.0192006907492,-0.000185973803191,0.999814790079
2826260000000,0.498029633072,-0.20802396998,-1.54536724948,0.00129785181007,0.0192006876782,-0.000185952359956,0.999814790146
2826265000000,0.498029697378,-0.208023977693,-1.54536725419,0.0012978562894,0.019200685185,-0.000185952695451,0.999814790188
2826270000000,0.498029748678,-0.208023976302,-1.54536725962,0.0012978493995,0.0192006781976,-0.000185931479494,0.999814790335
2826274000000,0.498029799662,-0.208023973388,-1.54536726357,0.00129785023448,0.019200678189,-0.000185912342036,0.999814790338
2826279000000,0.4980298521,-0.208023972757,-1.54536726902,0.00129785417574,0.0192006785678,-0.000185893541745,0.999814790329
2826283000000,0.498029905653,-0.208023974183,-1.54536727577,0.0012978613448,0.0192006792407,-0.000185875659451,0.99981479031
2826288000000,0.498029959581,-0.208023984051,-1.54536728102,0.00129786099772,0.0192006683759,-0.000185872413783,0.99981479052
2826292000000,0.498030010347,-0.208023994731,-1.54536728552,0.00129785358447,0.0192006533874,-0.000185886326955,0.999814790815
2826296000000,0.498030055878,-0.208024001799,-1.54536728932,0.0012978425337,0.019200639144,-0.000185916034696,0.999814791097
2826301000000,0.498030094299,-0.208024003835,-1.5453672924,0.00129783061271,0.0192006308932,-0.000185960435646,0.999814791263
2826307000000,0.498030123264,-0.208024000813,-1.54536729451,0.0012978200753,0.0192006367922,-0.000186019669986,0.999814791152
2826311000000,0.498030149233,-0.208023993753,-1.54536729609,0.00129781273725,0.0192006471955,-0.000186074038257,0.999814790952
2826316000000,0.498030176756,-0.208023983957,-1.54536729759,0.00129780772228,0.0192006533646,-0.000186109946601,0.999814790833
2826320000000,0.498030205778,-0.208023977199,-1.54536729907,0.00129780577443,0.0192006554451,-0.000186122072944,0.999814790793
2826324000000,0.49803023671,-0.208023968355,-1.54536730049,0.00129780501342,0.0192006553875,-0.000186112597904,0.999814790797
2826326000000,0.498030269402,-0.208023951492,-1.54536730199,0.00129780723789,0.0192006523704,-0.0001860771685,0.999814790859
2826331000000,0.49803030357,-0.208023927213,-1.54536730363,0.00129782807605,0.0192006456405,-0.000186019821733,0.999814790972
2826335000000,0.498030339346,-0.208023908594,-1.54536730528,0.00129784745029,0.0192006346455,-0.000185961625574,0.999814791169
2826340000000,0.498030376858,-0.208023896838,-1.54536730782,0.00129786431719,0.0192006201353,-0.000185901947358,0.999814791436
2826344000000,0.498030415488,-0.208023888669,-1.54536731069,0.00129787789275,0.0192006057102,-0.000185844459434,0.999814791707
2826349000000,0.498030454375,-0.208023880108,-1.54536731314,0.00129788803969,0.0192005947032,-0.000185793709416,0.999814791914
2826354000000,0.498030493503,-0.20802387021,-1.54536731533,0.00129789633175,0.0192005854995,-0.000185749415833,0.999814792088
2826358000000,0.498030533505,-0.208023861257,-1.54536731811,0.00129790466909,0.0192005738355,-0.000185706785928,0.999814792309
2826367000000,0.498030574893,-0.208023854443,-1.54536732193,0.001297913908,0.0192005579798,-0.000185663044561,0.99981479261
2826372000000,0.498030616635,-0.208023848364,-1.54536732553,0.00129792163583,0.0192005436431,-0.000185622206111,0.999814792883
2826376000000,0.498030660919,-0.208023847959,-1.54536732807,0.0012979234903,0.0192005275139,-0.000185565471037,0.999814793201
2826381000000,0.498030705149,-0.208023848887,-1.54536733012,0.00129792049387,0.0192005115076,-0.000185509662878,0.999814793522
2826384000000,0.498030747004,-0.20802384801,-1.5453673317,0.00129791481311,0.0192004982708,-0.00018546521845,0.999814793792
2826389000000,0.49803078339,-0.2080238431,-1.54536733282,0.0012979079403,0.0192004906879,-0.000185442564984,0.999814793951
2826393000000,0.498030807899,-0.208023831472,-1.5453673331,0.00129790060586,0.0192005011385,-0.000185459387132,0.999814793757
2826398000000,0.498030831135,-0.208023809242,-1.54536733284,0.00129789442655,0.0192005143907,-0.00018549577941,0.999814793504
2826404000000,0.4980308544,-0.208023774508,-1.54536733264,0.00129790331304,0.0192005236613,-0.000185560838799,0.999814793302
2826408000000,0.498030877456,-0.208023752484,-1.54536733162,0.00129791458083,0.0192005329068,-0.000185614605206,0.9998147931
2826411000000,0.498030907218,-0.208023733639,-1.54536733136,0.00129792462314,0.0192005417182,-0.000185685780438,0.999814792904
2826416000000,0.498030937074,-0.208023719632,-1.54536733143,0.00129793180823,0.0192005524605,-0.000185740568872,0.999814792678
2826419000000,0.498030965093,-0.208023712706,-1.54536733172,0.00129793775551,0.0192005607053,-0.000185783282261,0.999814792504
2826422000000,0.498030992449,-0.208023709645,-1.5453673324,0.00129794208616,0.0192005668194,-0.000185820429124,0.999814792375
2826426000000,0.498031019601,-0.208023708306,-1.54536733334,0.00129794514708,0.0192005716069,-0.000185853895148,0.999814792272
2826430000000,0.498031046687,-0.208023707706,-1.5453673344,0.00129794731851,0.0192005754484,-0.000185884493619,0.99981479219
2826435000000,0.498031073751,-0.20802370742,-1.54536733551,0.00129794885272,0.0192005785704,-0.000185912745317,0.999814792123
2826439000000,0.49803110081,-0.208023707253,-1.54536733665,0.00129794991313,0.0192005811331,-0.000185939041199,0.999814792067
2826443000000,0.49803112787,-0.208023707115,-1.54536733781,0.00129795061329,0.0192005832565,-0.000185963685357,0.999814792021
2826446000000,0.498031154934,-0.208023706958,-1.54536733897,0.00129795103684,0.0192005850325,-0.00018598691702,0.999814791982
2826450000000,0.498031182001,-0.20802370676,-1.54536734013,0.00129795125439,0.0192005865324,-0.00018600893293,0.999814791949
2826454000000,0.498031209068,-0.208023706512,-1.54536734129,0.00129795132172,0.0192005878144,-0.000186029881957,0.99981479192
2826458000000,0.498031236133,-0.208023706223,-1.54536734245,0.00129795128003,0.0192005889249,-0.000186049876321,0.999814791895
2826463000000,0.498031263191,-0.208023705905,-1.54536734361,0.00129795116027,0.0192005899006,-0.000186069002662,0.999814791873
2826467000000,0.498031290235,-0.208023705575,-1.54536734475,0.00129795098668,0.0192005907708,-0.000186087327631,0.999814791853
2826472000000,0.498031317262,-0.208023705254,-1.54536734589,0.00129795077924,0.01920059156,-0.000186104900722,0.999814791835
2826477000000,0.498031344264,-0.208023704963,-1.54536734702,0.00129795055547,0.0192005922895,-0.000186121755697,0.999814791818
2826481000000,0.49803137123,-0.208023704747,-1.54536734814,0.00129795034331,0.019200592988,-0.000186137887067,0.999814791802
2826484000000,0.498031398136,-0.208023704701,-1.54536734923,0.00129795019641,0.019200593706,-0.000186153217859,0.999814791786
2826489000000,0.498031424958,-0.208023704909,-1.54536735028,0.00129795013664,0.0192005944694,-0.000186167703685,0.999814791768
2826495000000,0.498031451717,-0.208023705268,-1.54536735134,0.00129795003983,0.0192005951744,-0.000186181547232,0.999814791752
2826500000000,0.498031478425,-0.208023705704,-1.54536735241,0.00129794990385,0.0192005958279,-0.000186194813583,0.999814791738
2826504000000,0.49803150509,-0.20802370617,-1.54536735348,0.00129794973899,0.0192005964402,-0.000186207544953,0.999814791724
2826509000000,0.498031531717,-0.208023706643,-1.54536735456,0.00129794955378,0.0192005970192,-0.000186219776169,0.999814791711
2826514000000,0.498031558309,-0.208023707107,-1.54536735563,0.00129794935451,0.0192005975705,-0.000186231536475,0.999814791698
2826518000000,0.49803158487,-0.208023707554,-1.5453673567,0.00129794914594,0.0192005980984,-0.000186242851752,0.999814791686
2826523000000,0.498031611403,-0.208023707979,-1.54536735777,0.00129794893167,0.0192005986061,-0.000186253744689,0.999814791675
2826527000000,0.498031637908,-0.208023708382,-1.54536735883,0.00129794871446,0.0192005990958,-0.000186264235524,0.999814791664
2826532000000,0.498031664388,-0.20802370876,-1.5453673599,0.00129794849642,0.0192005995693,-0.00018627434272,0.999814791653
2826535000000,0.498031690845,-0.208023709114,-1.54536736096,0.00129794827917,0.019200600028,-0.00018628408317,0.999814791642
2826541000000,0.498031717279,-0.208023709446,-1.54536736202,0.00129794806391,0.0192006004731,-0.000186293472489,0.999814791632
2826545000000,0.498031743692,-0.208023709756,-1.54536736307,0.00129794785152,0.0192006009052,-0.00018630252522,0.999814791623
2826550000000,0.498031770086,-0.208023710045,-1.54536736413,0.00129794764268,0.0192006013253,-0.000186311254921,0.999814791613
2826554000000,0.49803179646,-0.208023710315,-1.54536736518,0.00129794743783,0.0192006017337,-0.000186319674322,0.999814791604
2826556000000,0.498031822817,-0.208023710567,-1.54536736623,0.00129794723731,0.019200602131,-0.000186327795412,0.999814791595
2826563000000,0.498031849156,-0.208023710802,-1.54536736728,0.00129794704132,0.0192006025174,-0.000186335629604,0.999814791587
2826567000000,0.498031875479,-0.208023711021,-1.54536736833,0.00129794684999,0.0192006028935,-0.000186343187837,0.999814791578
2826571000000,0.498031901787,-0.208023711226,-1.54536736937,0.00129794666338,0.0192006032595,-0.000186350480294,0.99981479157
2826575000000,0.49803192808,-0.208023711417,-1.54536737041,0.0012979464815,0.0192006036155,-0.000186357516739,0.999814791562
2826580000000,0.498031954358,-0.208023711596,-1.54536737146,0.0012979463043,0.019200603962,-0.000186364306774,0.999814791555
2826584000000,0.498031980624,-0.208023711763,-1.5453673725,0.00129794613173,0.0192006042991,-0.000186370859213,0.999814791547
2826588000000,0.498032006876,-0.20802371192,-1.54536737354,0.0012979459637,0.019200604627,-0.000186377182787,0.99981479154
2826593000000,0.498032033116,-0.208023712066,-1.54536737458,0.00129794580012,0.0192006049461,-0.000186383285698,0.999814791533
2826598000000,0.498032059345,-0.208023712202,-1.54536737562,0.00129794564087,0.0192006052565,-0.000186389175911,0.999814791526
2826601000000,0.498032085563,-0.20802371233,-1.54536737665,0.00129794548583,0.0192006055584,-0.000186394861031,0.999814791519
2826607000000,0.498032111769,-0.20802371245,-1.54536737769,0.00129794533489,0.019200605852,-0.000186400348423,0.999814791513
2826611000000,0.498032137966,-0.208023712562,-1.54536737872,0.00129794518791,0.0192006061376,-0.000186405645056,0.999814791506
2826617000000,0.498032164153,-0.208023712666,-1.54536737976,0.00129794504477,0.0192006064153,-0.00018641075785,0.9998147915
2826621000000,0.498032190331,-0.208023712765,-1.54536738079,0.00129794490535,0.0192006066854,-0.000186415693175,0.999814791494
2826626000000,0.498032216501,-0.208023712856,-1.54536738182,0.00129794476951,0.019200606948,-0.00018642045748,0.999814791489
2826630000000,0.498032242662,-0.208023712942,-1.54536738286,0.00129794463715,0.0192006072034,-0.000186425056728,0.999814791483
2826634000000,0.498032268814,-0.208023713023,-1.54536738389,0.00129794450813,0.0192006074517,-0.000186429496689,0.999814791478
2826639000000,0.49803229496,-0.208023713098,-1.54536738492,0.00129794438235,0.0192006076933,-0.000186433783179,0.999814791472
2826643000000,0.498032321098,-0.208023713168,-1.54536738595,0.00129794425969,0.0192006079281,-0.000186437921493,0.999814791467
